FMT, 128, 89, FMT, BBnNZ, Type,Length,Name,Format,Columns
FMT, 116, 44, FMTU, QBNN, TimeUS,FmtType,UnitIds,MultIds
FMT, 59, 75, MSG, QZ, TimeUS,Message
MSG, 14279532, RCOut: PWM:1-7 PWM:9 PWM:11-14
FMT, 117, 76, UNIT, QbZ, TimeUS,Id,Label
FMT, 118, 20, MULT, Qbd, TimeUS,Id,Mult
FMT, 32, 35, PARM, QNff, TimeUS,Name,Value,Default
FMT, 211, 28, GAS, Q#ffff, TimeUS,Seq,MQ2,MQ5,Lat,Lon
FMT, 94, 51, GPS, QBBIHBcLLeffffB, TimeUS,I,Status,GMS,GWk,NSats,HDop,Lat,Lng,Alt,Spd,GCrs,VZ,Yaw,U
FMT, 95, 39, GPA, QBCCCCfBIHeHH, TimeUS,I,VDop,HAcc,VAcc,SAcc,YAcc,VV,SMS,Delta,AEl,RTCMFU,RTCMFD
FMT, 99, 22, UBX1, QBHBBHI, TimeUS,Instance,noisePerMS,jamInd,aPower,agcCnt,config
FMT, 100, 16, UBX2, QBbBbB, TimeUS,Instance,ofsI,magI,ofsQ,magQ
FMT, 96, 42, GRAW, QIHBBddfBbB, TimeUS,WkMS,Week,numSV,sv,cpMes,prMes,doMes,mesQI,cno,lli
FMT, 97, 24, GRXH, QdHbBB, TimeUS,rcvTime,week,leapS,numMeas,recStat
FMT, 98, 41, GRXS, QddfBBBHBBBBB, TimeUS,prMes,cpMes,doMes,gnss,sv,freq,lock,cno,prD,cpD,doD,trk
FMT, 101, 23, SBPH, QIII, TimeUS,CrcError,LastInject,IARhyp
FMT, 102, 23, SBRE, QHIiBB, TimeUS,GWk,GMS,ns_residual,level,quality
FMT, 60, 39, RCIN, QHHHHHHHHHHHHHH, TimeUS,C1,C2,C3,C4,C5,C6,C7,C8,C9,C10,C11,C12,C13,C14
FMT, 61, 18, RCI2, QHHHB, TimeUS,C15,C16,OMask,Flags
FMT, 62, 39, RCOU, QHHHHHHHHHHHHHH, TimeUS,C1,C2,C3,C4,C5,C6,C7,C8,C9,C10,C11,C12,C13,C14
FMT, 207, 19, RCO2, QHHHH, TimeUS,C15,C16,C17,C18
FMT, 208, 39, RCO3, QHHHHHHHHHHHHHH, TimeUS,C19,C20,C21,C22,C23,C24,C25,C26,C27,C28,C29,C30,C31,C32
FMT, 63, 19, RSSI, Qff, TimeUS,RXRSSI,RXLQ
FMT, 64, 47, BARO, QBfffcfIffBf, TimeUS,I,Alt,AltAMSL,Press,Temp,CRt,SMS,Offset,GndTemp,H,CPress
FMT, 65, 24, BARD, QBfff, TimeUS,I,DynPrX,DynPrY,DynPrZ
FMT, 66, 25, CANF, QBIBBBBBBBBB, TimeUS,Bus,Id,DLC,B0,B1,B2,B3,B4,B5,B6,B7
FMT, 67, 81, CAFD, QBIBQQQQQQQQ, TimeUS,Bus,Id,DLC,D0,D1,D2,D3,D4,D5,D6,D7
FMT, 196, 50, PL, QBBfffffffIIB, TimeUS,Heal,TAcq,pX,pY,vX,vY,mX,mY,mZ,LastMeasMS,EKFOutl,Est
FMT, 68, 24, POWR, QffHHB, TimeUS,Vcc,VServo,Flags,AccFlags,Safety
FMT, 69, 27, MCU, Qffff, TimeUS,MTemp,MVolt,MVmin,MVmax
FMT, 93, 46, CMD, QHHHffffLLfB, TimeUS,CTot,CNum,CId,Prm1,Prm2,Prm3,Prm4,Lat,Lng,Alt,Frame
FMT, 92, 46, MISE, QHHHffffLLfB, TimeUS,CTot,CNum,CId,Prm1,Prm2,Prm3,Prm4,Lat,Lng,Alt,Frame
FMT, 78, 48, MAVC, QBBBBBHffffiifBB, TimeUS,TS,TC,SS,SC,Fr,Cmd,P1,P2,P3,P4,X,Y,Z,Res,WL
FMT, 79, 20, RAD, QBBBBBHH, TimeUS,RSSI,RemRSSI,TxBuf,Noise,RemNoise,RxErrors,Fixed
FMT, 81, 46, CAM, QBHIHLLeeeccC, TimeUS,I,Img,GPSTime,GPSWeek,Lat,Lng,Alt,RelAlt,GPSAlt,R,P,Y
FMT, 82, 46, TRIG, QBHIHLLeeeccC, TimeUS,I,Img,GPSTime,GPSWeek,Lat,Lng,Alt,RelAlt,GPSAlt,R,P,Y
FMT, 83, 48, MNT, QBfffffffff, TimeUS,I,DRoll,Roll,DPitch,Pitch,DYawB,YawB,DYawE,YawE,Dist
FMT, 112, 41, ARSP, QBffcffBBffB, TimeUS,I,Airspeed,DiffPress,Temp,RawPress,Offset,U,H,Hp,TR,Pri
FMT, 88, 41, BAT, QBfffffcfBBB, TimeUS,Inst,Volt,VoltR,Curr,CurrTot,EnrgTot,Temp,Res,RemPct,H,SH
FMT, 89, 40, BCL, QBfHHHHHHHHHHHH, TimeUS,Instance,Volt,V1,V2,V3,V4,V5,V6,V7,V8,V9,V10,V11,V12
FMT, 111, 35, MAG, QBhhhhhhhhhBI, TimeUS,I,MagX,MagY,MagZ,OfsX,OfsY,OfsZ,MOX,MOY,MOZ,Health,S
FMT, 120, 14, MODE, QMBB, TimeUS,Mode,ModeNum,Rsn
FMT, 114, 19, RFND, QBfBBb, TimeUS,Instance,Dist,Stat,Orient,Quality
FMT, 115, 36, DMS, QIIIIBBBBBBBBB, TimeUS,N,Dp,RT,RS,Fa,Fmn,Fmx,Pa,Pmn,Pmx,Sa,Smn,Smx
FMT, 174, 41, BCN, QBBfffffff, TimeUS,Health,Cnt,D0,D1,D2,D3,PosX,PosY,PosZ
FMT, 175, 57, PRX, QBBfffffffffff, TimeUS,Layer,He,D0,D45,D90,D135,D180,D225,D270,D315,DUp,CAn,CDis
FMT, 176, 44, PRXR, QBffffffff, TimeUS,Layer,D0,D45,D90,D135,D180,D225,D270,D315
FMT, 179, 61, PM, QHHHIIHHIIIIIIQ, TimeUS,LR,NLon,NL,MaxT,Mem,Load,ErrL,InE,ErC,SPIC,I2CC,I2CI,Ex,R
FMT, 178, 29, SRTL, QBHHBfff, TimeUS,Active,NumPts,MaxPts,Action,N,E,D
FMT, 170, 48, OABR, QBBHHHBfLLfLLf, TimeUS,Type,Act,DYaw,Yaw,DP,RChg,Mar,DLt,DLg,DAlt,OLt,OLg,OAlt
FMT, 171, 31, OADJ, QBBBBLLLL, TimeUS,State,Err,CurrPoint,TotPoints,DLat,DLng,OALat,OALng
FMT, 172, 37, SA, QBffffffB, TimeUS,State,DVelX,DVelY,DVelZ,MVelX,MVelY,MVelZ,Back
FMT, 173, 21, OAVG, QBBLL, TimeUS,version,point_num,Lat,Lon
FMT, 77, 45, SIM, QccCfLLffff, TimeUS,Roll,Pitch,Yaw,Alt,Lat,Lng,Q1,Q2,Q3,Q4
FMT, 84, 38, TERR, QBLLHffHHf, TimeUS,Status,Lat,Lng,Spacing,TerrH,CHeight,Pending,Loaded,ROfs
FMT, 86, 40, ESC, QBffffcfcf, TimeUS,Instance,RPM,RawRPM,Volt,Curr,Temp,CTot,MotTemp,Err
FMT, 87, 15, EDT2, QBBBB, TimeUS,Instance,Stress,MaxStress,Status
FMT, 85, 46, CSRV, QBfffBfffffB, TimeUS,Id,Pos,Force,Speed,Pow,PosCmd,V,A,MotT,PCBT,Err
FMT, 103, 52, PIDR, QffffffffffB, TimeUS,Tar,Act,Err,P,I,D,FF,DFF,Dmod,SRate,Flags
FMT, 104, 52, PIDP, QffffffffffB, TimeUS,Tar,Act,Err,P,I,D,FF,DFF,Dmod,SRate,Flags
FMT, 105, 52, PIDY, QffffffffffB, TimeUS,Tar,Act,Err,P,I,D,FF,DFF,Dmod,SRate,Flags
FMT, 106, 52, PIDA, QffffffffffB, TimeUS,Tar,Act,Err,P,I,D,FF,DFF,Dmod,SRate,Flags
FMT, 107, 52, PIDS, QffffffffffB, TimeUS,Tar,Act,Err,P,I,D,FF,DFF,Dmod,SRate,Flags
FMT, 108, 52, PIDN, QffffffffffB, TimeUS,Tar,Act,Err,P,I,D,FF,DFF,Dmod,SRate,Flags
FMT, 109, 52, PIDE, QffffffffffB, TimeUS,Tar,Act,Err,P,I,D,FF,DFF,Dmod,SRate,Flags
FMT, 110, 56, DSTL, QBfLLeccfeffff, TimeUS,Stg,THdg,Lat,Lng,Alt,XT,Travel,L1I,Loiter,Des,P,I,D
FMT, 161, 32, ACC, QBQfff, TimeUS,I,SampleUS,AccX,AccY,AccZ
FMT, 162, 32, GYR, QBQfff, TimeUS,I,SampleUS,GyrX,GyrY,GyrZ
FMT, 163, 54, IMU, QBffffffIIfBBHH, TimeUS,I,GyrX,GyrY,GyrZ,AccX,AccY,AccZ,EG,EA,T,GH,AH,GHz,AHz
FMT, 166, 28, VIBE, QBfffI, TimeUS,IMU,VibeX,VibeY,VibeZ,Clip
FMT, 164, 31, ISBH, QHBBHHQf, TimeUS,N,type,instance,mul,smp_cnt,SampleUS,smp_rate
FMT, 165, 207, ISBD, QHHaaa, TimeUS,N,seqno,x,y,z
FMT, 129, 15, RFRH, QI, TimeUS,TF
FMT, 130, 5, RFRF, BB, FTypes,Slow
FMT, 138, 38, RFRN, IIIfIfffBBB, HLat,HLon,HAlt,E2T,AM,TX,TY,TZ,VC,EKT,Flags
FMT, 131, 4, REV2, B, Event
FMT, 132, 15, RSO2, III, Lat,Lon,Alt
FMT, 133, 11, RWA2, ff, Airspeed,uncertainty
FMT, 134, 4, REV3, B, Event
FMT, 135, 15, RSO3, III, Lat,Lon,Alt
FMT, 136, 11, RWA3, ff, Airspeed,Uncertainty
FMT, 137, 16, REY3, ffIB, yawangle,yawangleerr,timestamp_ms,type
FMT, 139, 13, RISH, HBBfBB, LR,PG,PA,LD,AC,GC
FMT, 140, 37, RISI, ffffffffBB, DVX,DVY,DVZ,DAX,DAY,DAZ,DVDT,DADT,Flags,I
FMT, 148, 5, RASH, BB, Primary,NumInst
FMT, 149, 14, RASI, fIBBB, pd,UpdateMS,H,Use,I
FMT, 141, 5, RBRH, BB, Primary,NumInst
FMT, 142, 13, RBRI, IfBB, LastUpdate,Alt,H,I
FMT, 143, 12, RRNH, ffB, GCl,MaxD,NumSensors
FMT, 144, 22, RRNI, ffffBBB, PX,PY,PZ,Dist,Orient,Status,I
FMT, 145, 5, RGPH, BB, NumInst,Primary
FMT, 146, 23, RGPI, ffffBBBB, OX,OY,OZ,Lg,Flags,Stat,NSats,I
FMT, 147, 58, RGPJ, IffffffIiiiffHB, TS,VX,VY,VZ,SA,Y,YA,YT,Lat,Lon,Alt,HA,VA,HD,I
FMT, 153, 14, RMGH, fBBBBBBB, Dec,Avail,NumInst,AutoDec,NumEna,LOE,C,FUsable
FMT, 154, 35, RMGI, IffffffBBBB, LU,OX,OY,OZ,FX,FY,FZ,UFY,H,HSF,I
FMT, 150, 33, RBCH, ffffiiiBB, PX,PY,PZ,AE,OLat,OLng,OAlt,Flags,NumInst
FMT, 151, 25, RBCI, IffffBB, LU,PX,PY,PZ,Dist,H,I
FMT, 152, 21, RVOH, fffIBB, OX,OY,OZ,Del,H,Ena
FMT, 155, 40, ROFH, ffffIffffB, FX,FY,GX,GY,Tms,PX,PY,PZ,HgtOvr,Qual
FMT, 156, 49, REPH, fffffffffIIH, PX,PY,PZ,Q1,Q2,Q3,Q4,PEr,AEr,TS,RT,D
FMT, 157, 19, RSLL, IIfI, Lat,Lng,PosAccSD,TS
FMT, 158, 25, REVH, ffffIH, VX,VY,VZ,Er,TS,D
FMT, 159, 31, RWOH, ffIffff, DA,DT,TS,PX,PY,PZ,R
FMT, 160, 53, RBOH, ffffffffIfffH, Q,DPX,DPY,DPZ,DAX,DAY,DAZ,DT,TS,OX,OY,OZ,D
FMT, 43, 37, XKF0, QBBccCCcccccccc, TimeUS,C,ID,rng,innov,SIV,TR,BPN,BPE,BPD,OFH,OFL,OFN,OFE,OFD
FMT, 44, 56, XKF1, QBccCfffffffccce, TimeUS,C,Roll,Pitch,Yaw,VN,VE,VD,dPD,PN,PE,PD,GX,GY,GZ,OH
FMT, 45, 46, XKF2, QBccccchhhhhhfff, TimeUS,C,AX,AY,AZ,VWN,VWE,MN,ME,MD,MX,MY,MZ,IDX,IDY,IS
FMT, 46, 42, XKF3, QBcccccchhhccff, TimeUS,C,IVN,IVE,IVD,IPN,IPE,IPD,IMX,IMY,IMZ,IYAW,IVT,RErr,ErSc
FMT, 47, 44, XKF4, QBcccccfffHBIHb, TimeUS,C,SV,SP,SH,SM,SVT,errRP,OFN,OFE,FS,TS,SS,GPS,PI
FMT, 48, 41, XKF5, QBBhhhcccCCfff, TimeUS,C,NI,FIX,FIY,AFI,HAGL,offset,RI,rng,Herr,eAng,eVel,ePos
FMT, 49, 36, XKFD, QBffffff, TimeUS,C,IX,IY,IZ,IVX,IVY,IVZ
FMT, 50, 29, XKFM, QBBffff, TimeUS,C,OGNM,GLR,ALR,GDR,ADR
FMT, 51, 20, XKFS, QBBBBBBBBB, TimeUS,C,MI,BI,GI,AI,SS,GPS_GTA,GPS_CHK_WAIT,MAG_FUSION
FMT, 52, 28, XKQ, QBffff, TimeUS,C,Q1,Q2,Q3,Q4
FMT, 53, 48, XKT, QBIffffffff, TimeUS,C,Cnt,IMUMin,IMUMax,EKFMin,EKFMax,AngMin,AngMax,VMin,VMax
FMT, 54, 20, XKTV, QBff, TimeUS,C,TVS,TVD
FMT, 55, 60, XKV1, QBffffffffffff, TimeUS,C,V00,V01,V02,V03,V04,V05,V06,V07,V08,V09,V10,V11
FMT, 56, 60, XKV2, QBffffffffffff, TimeUS,C,V12,V13,V14,V15,V16,V17,V18,V19,V20,V21,V22,V23
FMT, 57, 60, XKY0, QBffffffffffff, TimeUS,C,YC,YCS,Y0,Y1,Y2,Y3,Y4,W0,W1,W2,W3,W4
FMT, 58, 52, XKY1, QBffffffffff, TimeUS,C,IVN0,IVN1,IVN2,IVN3,IVN4,IVE0,IVE1,IVE2,IVE3,IVE4
FMT, 41, 60, NKY0, QBffffffffffff, TimeUS,C,YC,YCS,Y0,Y1,Y2,Y3,Y4,W0,W1,W2,W3,W4
FMT, 42, 52, NKY1, QBffffffffff, TimeUS,C,IVN0,IVN1,IVN2,IVN3,IVN4,IVE0,IVE1,IVE2,IVE3,IVE4
FMT, 70, 45, AHR2, QccCfLLffff, TimeUS,Roll,Pitch,Yaw,Alt,Lat,Lng,Q1,Q2,Q3,Q4
FMT, 71, 19, AOA, Qff, TimeUS,AOA,SSA
FMT, 72, 36, ATT, QffffffB, TimeUS,DesRoll,Roll,DesPitch,Pitch,DesYaw,Yaw,AEKF
FMT, 73, 24, ORGN, QBLLe, TimeUS,Type,Lat,Lng,Alt
FMT, 74, 31, POS, QLLfff, TimeUS,Lat,Lng,Alt,RelHomeAlt,RelOriginAlt
FMT, 76, 35, ATSC, Qffffff, TimeUS,AngPScX,AngPScY,AngPScZ,PDScX,PDScY,PDScZ
FMT, 204, 51, VSTB, Qffffffffff, TimeUS,GyrX,GyrY,GyrZ,AccX,AccY,AccZ,Q1,Q2,Q3,Q4
FMT, 90, 38, MON, QIbIHHHHHII, TimeUS,Dly,Tsk,IErr,IErrCnt,IErrLn,MM,MC,SmLn,SPICnt,I2CCnt
FMT, 91, 47, WDOG, QbIHHHHHHHIBIIn, TimeUS,Tsk,IE,IEC,IEL,MvMsg,MvCmd,SmLn,FL,FT,FA,FP,ICSR,LR,TN
FMT, 210, 24, UART, QBfff, TimeUS,I,Tx,Rx,RxDp
FMT, 113, 21, RPM, QBffB, TimeUS,I,RPM,Qual,H
FMT, 209, 27, FNCE, QBBBLLBf, TimeUS,Tot,Seq,Type,Lat,Lng,Count,Radius
FMT, 177, 33, DSF, QIHIIII, TimeUS,Dp,Blk,Bytes,FMn,FMx,FAv
FMT, 119, 24, RALY, QBBLLhB, TimeUS,Tot,Seq,Lat,Lng,Alt,Flags
FMT, 183, 23, MAV, QBHHHBHH, TimeUS,chan,txp,rxp,rxdp,flags,ss,tf
FMT, 167, 43, VISO, Qffffffff, TimeUS,dt,AngDX,AngDY,AngDZ,PosDX,PosDY,PosDZ,conf
FMT, 168, 58, VISP, QQIffffffffBBb, TimeUS,RTimeUS,CTimeMS,PX,PY,PZ,R,P,Y,PErr,AErr,Rst,Ign,Q
FMT, 169, 42, VISV, QQIffffBBb, TimeUS,RTimeUS,CTimeMS,VX,VY,VZ,VErr,Rst,Ign,Q
FMT, 180, 28, OF, QBffff, TimeUS,Qual,flowX,flowY,bodyX,bodyY
FMT, 182, 21, WENC, Qfbfb, TimeUS,Dist0,Qual0,Dist1,Qual1
FMT, 185, 35, ADSB, QIiiiHHhH, TimeUS,ICAO_address,Lat,Lng,Alt,Heading,Hor_vel,Ver_vel,Squark
FMT, 181, 12, EV, QB, TimeUS,Id
FMT, 186, 18, ARM, QBIBB, TimeUS,ArmState,ArmChecks,Forced,Method
FMT, 184, 13, ERR, QBB, TimeUS,Subsys,ECode
FMT, 187, 35, WINC, QBBBBBfffHfb, TimeUS,Heal,ThEnd,Mov,Clut,Mode,DLen,Len,DRate,Tens,Vcc,Temp
FMT, 188, 47, PSCN, Qfffffffff, TimeUS,DPN,TPN,PN,DVN,TVN,VN,DAN,TAN,AN
FMT, 189, 47, PSCE, Qfffffffff, TimeUS,DPE,TPE,PE,DVE,TVE,VE,DAE,TAE,AE
FMT, 190, 47, PSCD, Qfffffffff, TimeUS,DPD,TPD,PD,DVD,TVD,VD,DAD,TAD,AD
FMT, 191, 35, PSON, Qffffff, TimeUS,TPON,PON,TVON,VON,TAON,AON
FMT, 192, 35, PSOE, Qffffff, TimeUS,TPOE,POE,TVOE,VOE,TAOE,AOE
FMT, 193, 35, PSOD, Qffffff, TimeUS,TPOD,POD,TVOD,VOD,TAOD,AOD
FMT, 194, 35, PSOT, Qffffff, TimeUS,TPOT,POT,TVOT,VOT,TAOT,AOT
FMT, 75, 63, RATE, Qfffffffffffff, TimeUS,RDes,R,ROut,PDes,P,POut,YDes,Y,YOut,ADes,A,AOut,AOutSlew
FMT, 195, 39, ANG, Qfffffff, TimeUS,DesRoll,Roll,DesPitch,Pitch,DesYaw,Yaw,Dt
FMT, 201, 33, STAK, QBBHHN, TimeUS,Id,Pri,Total,Free,Name
FMT, 202, 88, FILE, NIBZ, FileName,Offset,Length,Data
FMT, 197, 78, AISR, QBBBZ, TimeUS,num,total,ID,payload
FMT, 198, 41, AIS1, QBBIBbHbLLHHBBbI, US,typ,rep,mmsi,nav,rot,sog,pos,lon,lat,cog,hed,sec,man,raim,rad
FMT, 199, 38, AIS4, QBIHBBBBBBLLBBI, US,rep,mmsi,year,mth,day,h,m,s,fix,lon,lat,epfd,raim,rad
FMT, 200, 175, AIS5, QBIBINZBHHBBBBZB, US,rep,mmsi,ver,imo,cal,nam,typ,bow,stn,prt,str,fix,dght,dst,dte
FMT, 203, 39, SCR, QNIii, TimeUS,Name,Runtime,Total_mem,Run_mem
FMT, 206, 98, VER, QBHBBBBIZHBBII, TimeUS,BT,BST,Maj,Min,Pat,FWT,GH,FWS,APJ,BU,FV,IMI,ICI
FMT, 205, 32, MOTB, QfffffB, TimeUS,LiftMax,BatVolt,ThLimit,ThrAvMx,ThrOut,FailFlags
FMT, 6, 24, PTUN, QBfff, TimeUS,Param,TunVal,TunMin,TunMax
FMT, 0, 55, CTUN, Qffffffefffhh, TimeUS,ThI,ABst,ThO,ThH,DAlt,Alt,BAlt,DSAlt,SAlt,TAlt,DCRt,CRt
FMT, 1, 14, D16, QBh, TimeUS,Id,Value
FMT, 2, 14, DU16, QBH, TimeUS,Id,Value
FMT, 3, 16, D32, QBi, TimeUS,Id,Value
FMT, 4, 16, DU32, QBI, TimeUS,Id,Value
FMT, 5, 16, DFLT, QBf, TimeUS,Id,Value
FMT, 9, 47, SIDD, Qfffffffff, TimeUS,Time,Targ,F,Gx,Gy,Gz,Ax,Ay,Az
FMT, 10, 40, SIDS, QBfffffff, TimeUS,Ax,Mag,FSt,FSp,TFin,TC,TR,TFout
FMT, 8, 49, GUIP, QBfffbffffff, TimeUS,Type,pX,pY,pZ,Terrain,vX,vY,vZ,aX,aY,aZ
FMT, 11, 44, GUIA, QBffffffff, TimeUS,Type,Roll,Pitch,Yaw,RollRt,PitchRt,YawRt,Thrust,ClimbRt
FMT, 12, 27, RTDT, Qffff, TimeUS,dt,dtAvg,dtMax,dtMin
IMU, 14355479, 0, -0.0003520875, 6.994201E-05, 3.175216E-05, 0.5563345, 0.2010328, -9.809349, 0, 0, 44.76891, 1, 1, 8000, 1000
IMU, 14395463, 0, 0.001067552, 0.0002517941, 0.0001341576, 0.5754693, 0.1903967, -9.841187, 0, 0, 44.77345, 1, 1, 8000, 1000
RFND, 14425363, 0, 0, 1, 25, -1
FMT, 250, 25, SURF, QBBfff, TimeUS,I,St,D,FD,TO
SURF, 14425381, 0, 3, 0, 0, 0
SURF, 14425488, 1, 2, 0, 0, 0
POWR, 14475383, 4.58584, 4.586154, 0, 0, 2
MAG, 14475417, 0, 0, 0, 0, 0, 0, 0, 0, 0, 0, 0, 0
MAG, 14475417, 1, -292, -277, -483, 121, 127, -25, 0, 0, 0, 1, 14475414
RFND, 14475478, 0, 0, 1, 25, -1
SURF, 14475497, 0, 3, 0, 0, 0
SURF, 14475524, 1, 2, 0, 0, 0
BARO, 14475577, 0, 0.6301355, 0.6301355, 101128, 42.88, 0.3425223, 14475, 0, 35, 1, 101128
CTUN, 14475664, 0, 0, 0, 0.6540451, 0, 0, 0.63, NaN, 0, NaN, 0, -9
ATT, 14475777, 0, 2.979531, 0, 3.563062, 0.009949959, 0.009949959, 0
ANG, 14474787, 0, 2.979531, 0, 3.563062, 0.009949959, 0.009949959, 0.0025
RATE, 14474814, -13.39053, 0.01362648, -0.03160075, -16.04093, 0.02244765, -0.03781493, 0.4171277, 0.01045266, 0.001212336, 0, 5.162144, 0, 0
PIDR, 14475830, -0.2337038, 0.0002378269, -0.2339416, -0.03158212, 0, -1.863313E-05, 0, 0, 1, 0.7630251, 9
PIDP, 14475897, -0.280052, 0.0003917854, -0.2804438, -0.03785991, 0, 4.497752E-05, 0, 0, 1, 0.8586616, 9
PIDY, 14475912, 0.007282246, 0.0001824333, 0.006735199, 0.001212336, 0, 0, 0, 0, 1, 0.007251636, 9
PIDA, 14475928, 0, 0, 0, 0, 0, 0, 0, 0, 0, 0, 0
MOTB, 14475948, 1, 1, 1, 0.06540451, 0, 2
RCIN, 14475968, 0, 0, 0, 0, 0, 0, 0, 0, 0, 0, 0, 0, 0, 0
RCI2, 14475982, 0, 0, 0, 1
RCOU, 14476011, 1000, 1000, 1000, 1000, 0, 0, 0, 0, 0, 0, 0, 0, 0, 0
RCO2, 14476024, 0, 0, 0, 0
VIBE, 14476039, 0, 0.02309387, 0.02263254, 0.0590459, 0
IMU, 14476058, 0, 0.0002378269, 0.0003917854, 0.0001824333, 0.5637228, 0.2031477, -9.840083, 0, 0, 44.78106, 1, 1, 7999, 999
IMU, 14515472, 0, 0.0001732068, 0.0005750249, 0.0001559706, 0.5790641, 0.1921764, -9.801561, 0, 0, 44.7853, 1, 1, 7999, 999
IMU, 14555510, 0, 0.000737763, -3.118931E-05, -1.696153E-05, 0.5782831, 0.1963215, -9.837137, 0, 0, 44.78912, 1, 1, 7999, 999
POWR, 14575407, 4.577783, 4.537802, 0, 0, 2
MAG, 14575436, 0, 0, 0, 0, 0, 0, 0, 0, 0, 0, 0, 0
MAG, 14575436, 1, -291, -280, -482, 121, 127, -25, 0, 0, 0, 1, 14575433
RFND, 14575488, 0, 0, 1, 25, -1
SURF, 14575520, 0, 3, 0, 0, 0
SURF, 14575555, 1, 2, 0, 0, 0
BARO, 14575672, 0, 0.3673435, 0.3673435, 101130.9, 42.89, 0.3102954, 14575, 0, 35, 1, 101130.9
CTUN, 14575695, 0, 0, 0, 0.6540451, 0, 0, 0.36, NaN, 0, NaN, 0, 34
ATT, 14575928, 0, 2.982959, 0, 3.550934, 0.01008037, 0.01008037, 0
ANG, 14574787, 0, 2.982959, 0, 3.550934, 0.01008037, 0.01008037, 0.0025
RATE, 14574810, -13.40617, 0.01186303, -0.03161131, -15.98648, 0.03135228, -0.03773733, 0.4161853, 0.009257213, 0.001280576, 0, 4.428196, 0, 0
PIDR, 14575980, -0.2339426, 0.000207049, -0.2341497, -0.03161021, 0, -1.101819E-06, 0, 0, 1, 1.05436, 9
PIDP, 14575996, -0.2791214, 0.0005472006, -0.2796686, -0.03775526, 0, 1.792891E-05, 0, 0, 1, 1.185776, 9
PIDY, 14576012, 0.007265397, 0.0001615689, 0.00711431, 0.001280576, 0, 0, 0, 0, 1, 0.01000492, 9
PIDA, 14576028, 0, 0, 0, 0, 0, 0, 0, 0, 0, 0, 0
MOTB, 14576047, 1, 1, 1, 0.06540451, 0, 2
RCIN, 14576068, 0, 0, 0, 0, 0, 0, 0, 0, 0, 0, 0, 0, 0, 0
RCI2, 14576082, 0, 0, 0, 1
RCOU, 14576119, 1000, 1000, 1000, 1000, 0, 0, 0, 0, 0, 0, 0, 0, 0, 0
RCO2, 14576132, 0, 0, 0, 0
VIBE, 14576176, 0, 0.02258492, 0.02177245, 0.04395538, 0
IMU, 14595481, 0, 0.0007272047, -0.000490893, -0.0003481927, 0.5709476, 0.1822593, -9.831606, 0, 0, 44.79274, 1, 1, 7999, 999
RFND, 14625320, 0, 0, 1, 25, -1
SURF, 14625339, 0, 3, 0, 0, 0
SURF, 14625366, 1, 2, 0, 0, 0
IMU, 14635496, 0, 0.0003145083, 0.0005105737, -6.208018E-06, 0.5755111, 0.2047966, -9.823157, 0, 0, 44.79678, 1, 1, 7999, 999
FMT, 252, 43, DCM, Qffffffff, TimeUS,Roll,Pitch,Yaw,ErrRP,ErrYaw,VWN,VWE,VWD
DCM, 14637504, 2.985279, 3.542068, 0.01019837, 0.8003072, 1, 0, 0, 0
POWR, 14675410, 4.600342, 4.586154, 0, 0, 2
MAG, 14675438, 0, 0, 0, 0, 0, 0, 0, 0, 0, 0, 0, 0
MAG, 14675438, 1, -293, -277, -482, 121, 127, -25, 0, 0, 0, 1, 14675435
RFND, 14675490, 0, 0, 1, 25, -1
SURF, 14675508, 0, 3, 0, 0, 0
SURF, 14675536, 1, 2, 0, 0, 0
BARO, 14675589, 0, 0.08194587, 0.08194587, 101134.1, 42.89, 0.2583121, 14675, 0, 35, 1, 101134.1
CTUN, 14675683, 0, 0, 0, 0.6540451, 0, 0, 0.08, NaN, 0, NaN, 0, 31
ATT, 14675899, 0, 2.98412, 0, 3.539582, 0.009722944, 0.009722944, 0
ANG, 14674793, 0, 2.98412, 0, 3.539582, 0.009722944, 0.009722944, 0.002507
RATE, 14674815, -13.41145, -0.01431159, -0.03153646, -15.93532, 0.03012392, -0.03773086, 0.4150156, -0.03316108, 0.001304722, 0, 1.626778, 0, 0
PIDR, 14675952, -0.2341082, -0.0002497844, -0.2338584, -0.03157088, 0, 3.442689E-05, 0, 0, 1, 1.274137, 9
PIDP, 14675968, -0.2781405, 0.0005257616, -0.2786663, -0.03761994, 0, -0.0001109173, 0, 0, 1, 1.43251, 9
PIDY, 14675984, 0.007244896, -0.0005787701, 0.007248456, 0.001304722, 0, 0, 0, 0, 1, 0.01211053, 9
PIDA, 14676000, 0, 0, 0, 0, 0, 0, 0, 0, 0, 0, 0
MOTB, 14676019, 1, 1, 1, 0.06540451, 0, 2
RCIN, 14676040, 0, 0, 0, 0, 0, 0, 0, 0, 0, 0, 0, 0, 0, 0
RCI2, 14676053, 0, 0, 0, 1
RCOU, 14676076, 1000, 1000, 1000, 1000, 0, 0, 0, 0, 0, 0, 0, 0, 0, 0
RCO2, 14676089, 0, 0, 0, 0
VIBE, 14676104, 0, 0.02336815, 0.02017171, 0.03377998, 0
IMU, 14676123, 0, -0.0002497844, 0.0005257616, -0.0005787701, 0.5763732, 0.2070226, -9.803828, 0, 0, 44.80117, 1, 1, 7999, 999
IMU, 14715463, 0, 6.826898E-05, 0.0007618227, 0.000481927, 0.56386, 0.1844285, -9.812567, 0, 0, 44.80434, 1, 1, 7999, 999
RFND, 14725315, 0, 0, 1, 25, -1
SURF, 14725334, 0, 3, 0, 0, 0
SURF, 14725361, 1, 2, 0, 0, 0
DCM, 14737503, 2.981259, 3.537688, 0.01029764, 0.6403984, 1, 0, 0, 0
MAV, 14752900, 0, 168, 33, 0, 6, 0, 0
IMU, 14755472, 0, -6.514346E-06, 0.0003180073, 0.0001133722, 0.5717593, 0.2054101, -9.82739, 0, 0, 44.80789, 1, 1, 7999, 999
POWR, 14775381, 4.593896, 4.607912, 0, 0, 2
MAG, 14775406, 0, 0, 0, 0, 0, 0, 0, 0, 0, 0, 0, 0
MAG, 14775406, 1, -293, -276, -484, 121, 127, -25, 0, 0, 0, 1, 14775403
RFND, 14775469, 0, 0, 1, 25, -1
SURF, 14775488, 0, 3, 0, 0, 0
SURF, 14775515, 1, 2, 0, 0, 0
BARO, 14775568, 0, 0.1723689, 0.1723689, 101133.1, 42.89, 0.08335651, 14775, 0, 35, 1, 101133.1
CTUN, 14775591, 0, 0, 0, 0.6540451, 0, 0, 0.17, NaN, 0, NaN, 0, 25
ATT, 14775774, 0, 2.979549, 0, 3.536552, 0.01074654, 0.01074654, 0
ANG, 14774787, 0, 2.979549, 0, 3.536552, 0.01074654, 0.01074654, 0.0025
RATE, 14774810, -13.39096, -0.009798331, -0.03147828, -15.92169, 0.04163271, -0.03768969, 0.4140248, 0.01856478, 0.001282158, 0, 4.294872, 0, 0
PIDR, 14775828, -0.2337563, -0.0001710131, -0.2335853, -0.03153401, 0, 5.573544E-05, 0, 0, 1, 1.414938, 9
PIDP, 14775895, -0.2779147, 0.0007266279, -0.2786413, -0.03761658, 0, -7.310952E-05, 0, 0, 1, 1.590533, 9
PIDY, 14775911, 0.007228184, 0.0003240165, 0.007123101, 0.001282158, 0, 0, 0, 0, 1, 0.01351776, 9
PIDA, 14775926, 0, 0, 0, 0, 0, 0, 0, 0, 0, 0, 0
MOTB, 14775946, 1, 1, 1, 0.06540451, 0, 2
RCIN, 14775966, 0, 0, 0, 0, 0, 0, 0, 0, 0, 0, 0, 0, 0, 0
RCI2, 14775980, 0, 0, 0, 1
RCOU, 14776002, 1000, 1000, 1000, 1000, 0, 0, 0, 0, 0, 0, 0, 0, 0, 0
RCO2, 14776016, 0, 0, 0, 0
VIBE, 14776030, 0, 0.02337649, 0.02556931, 0.03321268, 0
IMU, 14795459, 0, -0.0001339489, -0.0001785712, 0.0003306509, 0.5699908, 0.2041644, -9.831907, 0, 0, 44.81282, 1, 1, 7999, 999
MSG, 14813824, ArduCopter V4.7.0-dev (42215595)
MSG, 14813907, ChibiOS: c6d0293e
VER, 14813928, 10, 5001, 4, 7, 0, 0, 1109480853, ArduCopter V4.7.0-dev (42215595), 9, 2, 2, 537093136, 1093648945
MSG, 14813986, Pixhawk1 00360022 32305112 34393539
MSG, 14814036, Param space used: 1222/4096
MSG, 14814066, RC Protocol: None
MSG, 14814132, RCOut: PWM:1-7 PWM:9 PWM:11-14
MSG, 14814154, New mission
CMD, 14815496, 4, 0, 16, 0, 0, 0, 0, 0, 0, 0, 0
CMD, 14815527, 4, 1, 22, 0, 0, 0, 0, 0, 0, 4, 3
CMD, 14815558, 4, 2, 16, 0, 0, 0, 0, -7.2665152, 112.785202, 4, 3
CMD, 14815589, 4, 3, 16, 0, 0, 0, 0, -7.2665129, 112.785155, 4, 3
MSG, 14815677, New rally
MSG, 14815706, New fence
MSG, 14815741, Frame: QUAD/X
MODE, 14815759, Stabilize, 0, 26
RFND, 14825346, 0, 0, 1, 25, -1
SURF, 14825364, 0, 3, 0, 0, 0
SURF, 14825391, 1, 2, 0, 0, 0
STAK, 14831738, 17, 176, 1456, 984, I2C0
IMU, 14835466, 0, -0.0004286122, 0.0005287562, -0.0002541231, 0.5760968, 0.1865182, -9.817218, 0, 0, 44.81768, 1, 1, 7999, 999
DCM, 14837496, 2.976148, 3.533594, 0.0105043, 0.6403984, 1, 0, 0, 0
POWR, 14875392, 4.597119, 4.576483, 0, 0, 2
MAG, 14875421, 0, 0, 0, 0, 0, 0, 0, 0, 0, 0, 0, 0
MAG, 14875421, 1, -293, -276, -485, 121, 127, -25, 0, 0, 0, 1, 14875417
RFND, 14875475, 0, 0, 1, 25, -1
SURF, 14875492, 0, 3, 0, 0, 0
SURF, 14875520, 1, 2, 0, 0, 0
BARO, 14875572, 0, 0.2910491, 0.2910491, 101131.8, 42.89, -1.024841, 14875, 0, 35, 1, 101131.8
CTUN, 14875594, 0, 0, 0, 0.6540451, 0, 0, 0.29, NaN, 0, NaN, 0, 8
ATT, 14875771, 0, 2.972982, 0, 3.53014, 0.009940917, 0.009940917, 0
ANG, 14874793, 0, 2.972982, 0, 3.53014, 0.009940917, 0.009940917, 0.002507
RATE, 14874816, -13.36154, -0.05546119, -0.03122742, -15.89282, -0.02379652, -0.03739826, 0.4123622, -0.008537417, 0.001309384, 0, 3.583241, 0, 0
PIDR, 14875830, -0.2332709, -0.0009679804, -0.2323029, -0.03136089, 0, 0.0001334679, 0, 0, 1, 1.4947, 9
PIDP, 14875896, -0.2774567, -0.0004153277, -0.2770413, -0.03740058, 0, 2.321435E-06, 0, 0, 1, 1.680007, 9
PIDY, 14875912, 0.007201179, -0.0001490061, 0.007274357, 0.001309384, 0, 0, 0, 0, 1, 0.01435621, 9
PIDA, 14875927, 0, 0, 0, 0, 0, 0, 0, 0, 0, 0, 0
MOTB, 14875946, 1, 1, 1, 0.06540451, 0, 2
RCIN, 14875966, 0, 0, 0, 0, 0, 0, 0, 0, 0, 0, 0, 0, 0, 0
RCI2, 14875980, 0, 0, 0, 1
RCOU, 14876002, 1000, 1000, 1000, 1000, 0, 0, 0, 0, 0, 0, 0, 0, 0, 0
RCO2, 14876015, 0, 0, 0, 0
VIBE, 14876029, 0, 0.02117918, 0.02460581, 0.03063975, 0
IMU, 14876048, 0, -0.0009679804, -0.0004153277, -0.0001490061, 0.5622392, 0.1727127, -9.824927, 0, 0, 44.82216, 1, 1, 7999, 999
IMU, 14915531, 0, -0.0006539643, 0.001086857, -0.0002856178, 0.5675596, 0.1901529, -9.809276, 0, 0, 44.82697, 1, 1, 7999, 999
RFND, 14925314, 0, 0, 1, 25, -1
SURF, 14925332, 0, 3, 0, 0, 0
SURF, 14925359, 1, 2, 0, 0, 0
DCM, 14937495, 2.968351, 3.52633, 0.00885199, 0.5125704, 1, 0, 0, 0
STAK, 14944385, 18, 181, 1456, 824, SPI1
IMU, 14955511, 0, -0.0006877095, 0.0005304044, 0.0002231518, 0.5846289, 0.1979429, -9.822958, 0, 0, 44.8315, 1, 1, 7999, 999
POWR, 14975377, 4.603564, 4.586154, 0, 0, 2
MAG, 14975402, 0, 0, 0, 0, 0, 0, 0, 0, 0, 0, 0, 0
MAG, 14975402, 1, -293, -276, -484, 121, 127, -25, 0, 0, 0, 1, 14975399
RFND, 14975460, 0, 0, 1, 25, -1
SURF, 14975477, 0, 3, 0, 0, 0
SURF, 14975505, 1, 2, 0, 0, 0
BARO, 14975560, 0, 0.4803723, 0.4803723, 101129.6, 42.9, -0.6781727, 14975, 0, 35, 1, 101129.6
CTUN, 14975596, 0, 0, 0, 0.6540451, 0, 0, 0.48, NaN, 0, NaN, 0, -102
ATT, 14975773, 0, 2.965413, 0, 3.524359, 0.009101655, 0.00910724, 0
ANG, 14974786, 0, 2.965413, 0, 3.524359, 0.009101655, 0.00910724, 0.002499
RATE, 14974812, -13.32752, -0.009689515, -0.03141234, -15.86669, 0.04572535, -0.03752053, 0.4106127, 0.007758151, 0.001299481, 0, 4.15926, 0, 0
PIDR, 14975825, -0.2326535, -0.0001691139, -0.2324844, -0.03138539, 0, -2.69521E-05, 0, 0, 1, 1.527873, 9
PIDP, 14975907, -0.2769666, 0.000798058, -0.2777646, -0.03749823, 0, -2.230132E-05, 0, 0, 1, 1.717162, 9
PIDY, 14975922, 0.007169399, 0.0001354053, 0.007219337, 0.001299481, 0, 0, 0, 0, 1, 0.01474009, 9
PIDA, 14975938, 0, 0, 0, 0, 0, 0, 0, 0, 0, 0, 0
MOTB, 14975957, 1, 1, 1, 0.06540451, 0, 2
RCIN, 14975977, 0, 0, 0, 0, 0, 0, 0, 0, 0, 0, 0, 0, 0, 0
RCI2, 14975990, 0, 0, 0, 1
RCOU, 14976013, 1000, 1000, 1000, 1000, 0, 0, 0, 0, 0, 0, 0, 0, 0, 0
RCO2, 14976025, 0, 0, 0, 0
VIBE, 14976040, 0, 0.02229291, 0.02027722, 0.03524884, 0
IMU, 14995520, 0, 0.0003800663, 0.0006897477, -0.0004080359, 0.5649179, 0.1912005, -9.835967, 0, 0, 44.83415, 1, 1, 7999, 999
STAK, 15009269, 19, 58, 2992, 1368, FTP
RFND, 15025317, 0, 0, 1, 25, -1
SURF, 15025345, 0, 3, 0, 0, 0
SURF, 15025386, 1, 2, 0, 0, 0
IMU, 15035525, 0, 0.0001690945, 0.0004763811, 0.0002915357, 0.5656967, 0.1951804, -9.822282, 0, 0, 44.83708, 1, 1, 7999, 999
DCM, 15037499, 2.962222, 3.520123, 0.008717972, 0.5125704, 1, 0, 0, 0
POWR, 15075365, 4.593896, 4.593406, 0, 0, 2
MAG, 15075391, 0, 0, 0, 0, 0, 0, 0, 0, 0, 0, 0, 0
MAG, 15075391, 1, -292, -277, -483, 121, 127, -25, 0, 0, 0, 1, 15075387
RFND, 15075455, 0, 0, 1, 25, -1
SURF, 15075473, 0, 3, 0, 0, 0
SURF, 15075500, 1, 2, 0, 0, 0
BARO, 15075561, 0, -0.07912014, -0.07912014, 101135.9, 42.9, 0.2463674, 15075, 0, 35, 1, 101135.9
CTUN, 15075583, 0, 0, 0, 0.6540451, 0, 0, -0.07, NaN, 0, NaN, 0, -67
ATT, 15075775, 0, 2.960867, 0, 3.517156, 0.008131081, 0.008131081, 0
ANG, 15074787, 0, 2.960867, 0, 3.517156, 0.008131081, 0.008131081, 0.0025
RATE, 15074810, -13.30716, -0.002484039, -0.03144636, -15.83425, 0.01209566, -0.03730648, 0.4091696, 0.0001004521, 0.001306304, 0, 3.23267, 0, 0
PIDR, 15075827, -0.2322383, -4.335466E-05, -0.2321949, -0.03134632, 0, -0.0001000428, 0, 0, 1, 1.447023, 9
PIDP, 15075893, -0.2764191, 0.0002111092, -0.2766302, -0.03734508, 0, 3.859974E-05, 0, 0, 1, 1.625798, 9
PIDY, 15075908, 0.00714238, 1.753219E-06, 0.007257243, 0.001306304, 0, 0, 0, 0, 1, 0.01426795, 9
PIDA, 15075924, 0, 0, 0, 0, 0, 0, 0, 0, 0, 0, 0
MOTB, 15075943, 1, 1, 1, 0.06540451, 0, 2
RCIN, 15075970, 0, 0, 0, 0, 0, 0, 0, 0, 0, 0, 0, 0, 0, 0
RCI2, 15075983, 0, 0, 0, 1
RCOU, 15076005, 1000, 1000, 1000, 1000, 0, 0, 0, 0, 0, 0, 0, 0, 0, 0
RCO2, 15076018, 0, 0, 0, 0
VIBE, 15076032, 0, 0.0212211, 0.02299588, 0.03301053, 0
IMU, 15076051, 0, -4.335466E-05, 0.0002111092, 1.753219E-06, 0.5715095, 0.1802083, -9.820721, 0, 0, 44.83848, 1, 1, 7999, 999
STAK, 15109539, 255, 255, 1536, 1344, ISR
IMU, 15115465, 0, -2.680008E-05, 0.0008713228, 0.0003920683, 0.5688601, 0.1911621, -9.818112, 0, 0, 44.83868, 1, 1, 7999, 999
RFND, 15125370, 0, 0, 1, 25, -1
SURF, 15125388, 0, 3, 0, 0, 0
SURF, 15125416, 1, 2, 0, 0, 0
DCM, 15137496, 2.961666, 3.513786, 0.008705254, 0.4102591, 1, 0, 0, 0
IMU, 15155517, 0, 0.0003265339, 0.0004996232, 7.050822E-05, 0.5749055, 0.1868891, -9.823972, 0, 0, 44.83995, 1, 1, 7999, 999
POWR, 15175371, 4.587451, 4.600659, 0, 0, 2
MAG, 15175397, 0, 0, 0, 0, 0, 0, 0, 0, 0, 0, 0, 0
MAG, 15175397, 1, -292, -279, -483, 121, 127, -25, 0, 0, 0, 1, 15175393
RFND, 15175454, 0, 0, 1, 25, -1
SURF, 15175472, 0, 3, 0, 0, 0
SURF, 15175506, 1, 2, 0, 0, 0
BARO, 15175559, 0, 0.3334349, 0.3334349, 101131.3, 42.91, 0.2693264, 15175, 0, 35, 1, 101131.3
CTUN, 15175581, 0, 0, 0, 0.6540451, 0, 0, 0.33, NaN, 0, NaN, 0, 24
ATT, 15175758, 0, 2.962262, 0, 3.510854, 0.008923276, 0.008923276, 0
ANG, 15174787, 0, 2.962262, 0, 3.510854, 0.008923276, 0.008923276, 0.0025
RATE, 15174810, -13.31348, -0.03272766, -0.03115838, -15.80587, 0.0009992098, -0.03711798, 0.4086285, 0.002016096, 0.001265963, 0, 3.527641, 0, 0
PIDR, 15175824, -0.2323699, -0.0005712055, -0.2317986, -0.03129282, 0, 0.0001344408, 0, 0, 1, 1.309157, 9
PIDP, 15175891, -0.2759398, 1.74395E-05, -0.2759572, -0.03725422, 0, 0.0001362452, 0, 0, 1, 1.470899, 9
PIDY, 15175906, 0.007134041, 3.518752E-05, 0.00703313, 0.001265963, 0, 0, 0, 0, 1, 0.01290856, 9
PIDA, 15175922, 0, 0, 0, 0, 0, 0, 0, 0, 0, 0, 0
MOTB, 15175941, 1, 1, 1, 0.06540451, 0, 2
RCIN, 15175961, 0, 0, 0, 0, 0, 0, 0, 0, 0, 0, 0, 0, 0, 0
RCI2, 15175974, 0, 0, 0, 1
RCOU, 15175996, 1000, 1000, 1000, 1000, 0, 0, 0, 0, 0, 0, 0, 0, 0, 0
RCO2, 15176009, 0, 0, 0, 0
VIBE, 15176024, 0, 0.02019562, 0.01992463, 0.03065433, 0
IMU, 15195486, 0, -0.0001712841, 0.0001491639, 8.344078E-05, 0.5653667, 0.1853897, -9.818707, 0, 0, 44.84193, 1, 1, 7999, 999
STAK, 15211727, 0, 182, 7168, 5280, ArduCopter
RFND, 15225322, 0, 0, 1, 25, -1
SURF, 15225353, 0, 3, 0, 0, 0
SURF, 15225384, 1, 2, 0, 0, 0
IMU, 15235480, 0, 0.0004365023, -0.0003828168, 0.0001407866, 0.5686396, 0.1980855, -9.824987, 0, 0, 44.84483, 1, 1, 7999, 999
DCM, 15237503, 2.964207, 3.50586, 0.009344845, 0.4102591, 1, 0, 0, 0
MSG, 15241069, EKF3 IMU0 switching to compass 1
DSF, 15241424, 23, 1657, 71707, 477, 16294, 5762
POWR, 15275501, 4.605175, 4.593406, 0, 0, 2
MAG, 15275531, 0, 0, 0, 0, 0, 0, 0, 0, 0, 0, 0, 0
MAG, 15275531, 1, -292, -277, -483, 121, 127, -25, 0, 0, 0, 1, 15275527
RFND, 15275588, 0, 0, 1, 25, -1
SURF, 15275671, 0, 3, 0, 0, 0
SURF, 15275698, 1, 2, 0, 0, 0
BARO, 15275751, 0, 0.2995263, 0.2995263, 101131.7, 42.9, -0.3090631, 15275, 0, 35, 1, 101131.7
CTUN, 15275773, 0, 0, 0, 0.6540451, 0, 0, 0.29, NaN, 0, NaN, 0, 26
DU32, 15275817, 7, 4251784
ATT, 15276164, 0, 2.965139, 0, 3.503999, 0.009990045, 0.009990045, 0
ANG, 15274786, 0, 2.965139, 0, 3.503999, 0.009990045, 0.009990045, 0.002499
RATE, 15274809, -13.3265, 0.02840012, -0.03155981, -15.77505, 0.03537283, -0.03727328, 0.4082265, 0.01895497, 0.001259083, 0, 4.026794, 0, 0
PIDR, 15276227, -0.2325836, 0.0004956755, -0.2330793, -0.03146571, 0, -9.410213E-05, 0, 0, 1, 1.184427, 9
PIDP, 15276242, -0.2753598, 0.0006173723, -0.2759772, -0.03725693, 0, -1.635622E-05, 0, 0, 1, 1.33076, 9
PIDY, 15276258, 0.007125539, 0.0003308266, 0.006994908, 0.001259083, 0, 0, 0, 0, 1, 0.0116787, 9
PIDA, 15276273, 0, 0, 0, 0, 0, 0, 0, 0, 0, 0, 0
XKF4, 15275128, 0, 0, 0, 0, 0, 0, 0, 0, 0, 128, 0, 0, 0, 0
XKF1, 15275128, 0, 4.08, 0.14, 0, 0, 0, 0, 0, 0, 0, 0, 0, 0, 0, 0
XKF2, 15275128, 0, 0, 0, 0, 0, 0, 0, 0, 0, 0, 0, 0, 0, 0, 0
XKF3, 15275128, 0, 0, 0, 0, 0, 0, 0, 0, 0, 0, 0, 0, 0, 0
XKF5, 15275128, 0, 0, 0, 0, 0, 0, 0, 0, 0, 0, 0, 0, 0
XKFS, 15275128, 0, 1, 0, 0, 0, 0, 0, 0, 0
XKQ, 15275128, 0, 1, 0, 0, 0
XKV1, 15275128, 0, 0, 0, 0, 0, 0, 0, 0, 0, 0, 0, 0, 0
XKV2, 15275128, 0, 0, 0, 0, 0, 0, 0, 0, 0, 0, 0, 0, 0
XKT, 15275128, 0, 1, 0, 0, 0.01224, 0.01224, 0.001224, 0.001224, 0.001224, 0.001224
MOTB, 15276461, 1, 1, 1, 0.06540451, 0, 2
RCIN, 15276481, 0, 0, 0, 0, 0, 0, 0, 0, 0, 0, 0, 0, 0, 0
RCI2, 15276494, 0, 0, 0, 1
RCOU, 15276516, 1000, 1000, 1000, 1000, 0, 0, 0, 0, 0, 0, 0, 0, 0, 0
RCO2, 15276529, 0, 0, 0, 0
VIBE, 15276543, 0, 0.02203961, 0.02294863, 0.02711526, 0
IMU, 15276562, 0, 0.0004956755, 0.0006173723, 0.0003308266, 0.5896716, 0.2054797, -9.827116, 0, 0, 44.84866, 1, 1, 7999, 999
UART, 15276675, 0, 1135, 56, 0
UART, 15276689, 1, 15, 0, 0
UART, 15276709, 4, 15, 0, 0
UART, 15276723, 6, 777, 2484, 0
STAK, 15311961, 1, 1, 496, 288, idle
IMU, 15315665, 0, -0.0004634864, 0.0004333911, -0.0003348135, 0.572531, 0.1902035, -9.803711, 0, 0, 44.85383, 1, 1, 7999, 999
RFND, 15325460, 0, 0, 1, 25, -1
SURF, 15325478, 0, 3, 0, 0, 0
SURF, 15325509, 1, 2, 0, 0, 0
DCM, 15337522, 2.962608, 3.501077, 0.008248724, 0.3283832, 1, 0, 0, 0
IMU, 15355688, 0, 0.0006863789, 0.0006274663, -9.329497E-05, 0.5559564, 0.1988163, -9.817229, 0, 0, 44.85909, 1, 1, 7999, 999
POWR, 15375469, 4.597119, 4.588571, 0, 0, 2
MAG, 15375500, 0, 0, 0, 0, 0, 0, 0, 0, 0, 0, 0, 0
MAG, 15375500, 1, -293, -276, -482, 121, 127, -25, 0, 0, 0, 1, 15375493
RFND, 15375568, 0, 0, 1, 25, -1
SURF, 15375590, 0, 3, 0, 0, 0
SURF, 15375697, 1, 2, 0, 0, 0
BARO, 15375749, 0, 0, 0, 101135, 42.91, -0.2728585, 15375, 0, 35, 1, 101135
CTUN, 15375771, 0, 0, 0, 0.6540451, 0, 0, 0, NaN, 0, NaN, 0, -30
ATT, 15375935, 0, 2.961871, 0, 3.499404, 0.007746067, 0.007746067, 0
ANG, 15374787, 0, 2.961871, 0, 3.499404, 0.007746067, 0.007746067, 0.002493
RATE, 15374814, -13.31178, 0.01438029, -0.03135095, -15.75426, 0.01605909, -0.03701441, 0.4072414, 0.0009005121, 0.001296183, 0, 2.364826, 0, 0
PIDR, 15375987, -0.2323595, 0.0002509835, -0.2326105, -0.03140242, 0, 5.146411E-05, 0, 0, 1, 1.071578, 9
PIDP, 15376002, -0.2750346, 0.000280284, -0.2753149, -0.03716751, 0, 0.0001530961, 0, 0, 1, 1.203969, 9
PIDY, 15376018, 0.007110259, 1.57169E-05, 0.007201019, 0.001296183, 0, 0, 0, 0, 1, 0.01059438, 9
PIDA, 15376033, 0, 0, 0, 0, 0, 0, 0, 0, 0, 0, 0
XKF4, 15375093, 0, 0, 0, 0, 0, 0, 0, 0, 0, 128, 0, 0, 0, 0
XKF1, 15375093, 0, 4.08, 0.14, 0, 0, 0, 0, 0, 0, 0, 0, 0, 0, 0, 0
XKF2, 15375093, 0, 0, 0, 0, 0, 0, 0, 0, 0, 0, 0, 0, 0, 0, 0
XKF3, 15375093, 0, 0, 0, 0, 0, 0, 0, 0, 0, 0, 0, 0, 0, 0
XKF5, 15375093, 0, 0, 0, 0, 0, 0, 0, 0, 0, 0, 0, 0, 0
XKFS, 15375093, 0, 1, 0, 0, 0, 0, 0, 0, 0
XKQ, 15375093, 0, 1, 0, 0, 0
MOTB, 15376184, 1, 1, 1, 0.06540451, 0, 2
RCIN, 15376204, 0, 0, 0, 0, 0, 0, 0, 0, 0, 0, 0, 0, 0, 0
RCI2, 15376218, 0, 0, 0, 1
RCOU, 15376247, 1000, 1000, 1000, 1000, 0, 0, 0, 0, 0, 0, 0, 0, 0, 0
RCO2, 15376274, 0, 0, 0, 0
VIBE, 15376288, 0, 0.02038655, 0.02290582, 0.03292971, 0
IMU, 15395664, 0, -8.753595E-05, -0.0004161361, -0.0005113299, 0.5844308, 0.1817312, -9.804699, 0, 0, 44.86226, 1, 1, 7999, 999
STAK, 15413288, 2, 60, 1200, 856, UART_RX
RFND, 15425428, 0, 0, 1, 25, -1
SURF, 15425456, 0, 3, 0, 0, 0
SURF, 15425484, 1, 2, 0, 0, 0
IMU, 15435564, 0, 0.0006907133, -8.052911E-05, -0.0006523533, 0.5701811, 0.1868709, -9.839139, 0, 0, 44.86423, 1, 1, 7999, 999
DCM, 15437499, 2.960837, 3.4946, 0.007049744, 0.3283832, 1, 0, 0, 0
FMT, 254, 35, IOMC, QHHIIIII, TimeUS,RSErr,Mem,TS,NPkt,Nerr,Nerr2,NDel
IOMC, 15468212, 0, 608, 21275, 1451, 0, 0, 0
POWR, 15475435, 4.582617, 4.603077, 0, 0, 2
MAG, 15475460, 0, 0, 0, 0, 0, 0, 0, 0, 0, 0, 0, 0
MAG, 15475460, 1, -293, -277, -483, 121, 127, -25, 0, 0, 0, 1, 15475457
RFND, 15475511, 0, 0, 1, 25, -1
SURF, 15475544, 0, 3, 0, 0, 0
SURF, 15475582, 1, 2, 0, 0, 0
BARO, 15475708, 0, 0.5199324, 0.5199324, 101129.2, 42.9, 0.06269562, 15475, 0, 35, 1, 101129.2
CTUN, 15475730, 0, 0, 0, 0.6540451, 0, 0, 0.51, NaN, 0, NaN, 0, -27
ATT, 15476130, 0, 2.958794, 0, 3.494803, 0.006108755, 0.006108755, 0
ANG, 15474787, 0, 2.958794, 0, 3.494803, 0.006108755, 0.006108755, 0.0025
RATE, 15474808, -13.29806, -0.04279405, -0.03117363, -15.73361, 0.07021398, -0.03723635, 0.4062827, -0.02445325, 0.001318408, 0, 4.459858, 0, 0
PIDR, 15476192, -0.2321369, -0.000746897, -0.23139, -0.03123765, 0, 6.402134E-05, 0, 0, 1, 0.9694828, 9
PIDP, 15476208, -0.2745922, 0.001225465, -0.2758177, -0.03723539, 0, -9.623767E-07, 0, 0, 1, 1.08926, 9
PIDY, 15476223, 0.007091967, -0.0004267898, 0.007324489, 0.001318408, 0, 0, 0, 0, 1, 0.009633036, 9
PIDA, 15476239, 0, 0, 0, 0, 0, 0, 0, 0, 0, 0, 0
XKF4, 15475082, 0, 0, 0, 0, 0, 0, 0, 0, 0, 128, 0, 0, 0, 0
XKF1, 15475082, 0, 4.08, 0.14, 0, 0, 0, 0, 0, 0, 0, 0, 0, 0, 0, 0
XKF2, 15475082, 0, 0, 0, 0, 0, 0, 0, 0, 0, 0, 0, 0, 0, 0, 0
XKF3, 15475082, 0, 0, 0, 0, 0, 0, 0, 0, 0, 0, 0, 0, 0, 0
XKF5, 15475082, 0, 0, 0, 0, 0, 0, 0, 0, 0, 0, 0, 0, 0
XKFS, 15475082, 0, 1, 0, 0, 0, 0, 0, 0, 0
XKQ, 15475082, 0, 1, 0, 0, 0
MOTB, 15476394, 1, 1, 1, 0.06540451, 0, 2
RCIN, 15476414, 0, 0, 0, 0, 0, 0, 0, 0, 0, 0, 0, 0, 0, 0
RCI2, 15476428, 0, 0, 0, 1
RCOU, 15476453, 1000, 1000, 1000, 1000, 0, 0, 0, 0, 0, 0, 0, 0, 0, 0
RCO2, 15476466, 0, 0, 0, 0
VIBE, 15476480, 0, 0.02052003, 0.02067082, 0.03105812, 0
IMU, 15476499, 0, -0.000746897, 0.001225465, -0.0004267898, 0.5809999, 0.1952118, -9.832164, 0, 0, 44.86541, 1, 1, 7999, 999
STAK, 15513349, 3, 60, 752, 352, OTG1
IMU, 15515576, 0, 0.0007732527, 0.000206108, -2.319664E-05, 0.5617272, 0.1938749, -9.835859, 0, 0, 44.86693, 1, 1, 7999, 999
RFND, 15525408, 0, 0, 1, 25, -1
SURF, 15525426, 0, 3, 0, 0, 0
SURF, 15525473, 1, 2, 0, 0, 0
DCM, 15537494, 2.959774, 3.493182, 0.006666992, 0.2627743, 1, 0, 0, 0
IMU, 15555688, 0, 8.154242E-05, 0.0007605679, -0.0006999038, 0.5684246, 0.1911177, -9.800783, 0, 0, 44.8691, 1, 1, 7999, 999
POWR, 15575499, 4.592285, 4.590989, 0, 0, 2
MAG, 15575528, 0, 0, 0, 0, 0, 0, 0, 0, 0, 0, 0, 0
MAG, 15575528, 1, -292, -280, -481, 121, 127, -25, 0, 0, 0, 1, 15575521
RFND, 15575592, 0, 0, 1, 25, -1
SURF, 15575723, 0, 3, 0, 0, 0
SURF, 15575750, 1, 2, 0, 0, 0
BARO, 15575803, 0, 0.2712691, 0.2712691, 101132, 42.91, 0.1624789, 15575, 0, 35, 1, 101132
CTUN, 15575825, 0, 0, 0, 0.6540451, 0, 0, 0.27, NaN, 0, NaN, 0, 6
ATT, 15575995, 0, 2.960015, 0, 3.492389, 0.005927221, 0.005927221, 0
ANG, 15574787, 0, 2.960015, 0, 3.492389, 0.005927221, 0.005927221, 0.0025
RATE, 15574808, -13.30352, 0.02531373, -0.03144688, -15.72269, -0.02634221, -0.03682941, 0.4061697, 0.004028093, 0.001299994, 0, 2.763653, 0, 0
PIDR, 15576046, -0.2321728, 0.0004418079, -0.2326146, -0.03140297, 0, -4.390483E-05, 0, 0, 1, 0.8771147, 9
PIDP, 15576062, -0.2744426, -0.0004597583, -0.2739828, -0.03698768, 0, 0.0001582708, 0, 0, 1, 0.9854795, 9
PIDY, 15576077, 0.007089266, 7.030349E-05, 0.007222189, 0.001299994, 0, 0, 0, 0, 1, 0.008763283, 9
PIDA, 15576093, 0, 0, 0, 0, 0, 0, 0, 0, 0, 0, 0
XKF4, 15575088, 0, 0, 0, 0, 0, 0, 0, 0, 0, 128, 0, 0, 0, 0
XKF1, 15575088, 0, 4.08, 0.14, 0, 0, 0, 0, 0, 0, 0, 0, 0, 0, 0, 0
XKF2, 15575088, 0, 0, 0, 0, 0, 0, 0, 0, 0, 0, 0, 0, 0, 0, 0
XKF3, 15575088, 0, 0, 0, 0, 0, 0, 0, 0, 0, 0, 0, 0, 0, 0
XKF5, 15575088, 0, 0, 0, 0, 0, 0, 0, 0, 0, 0, 0, 0, 0
XKFS, 15575088, 0, 1, 0, 0, 0, 0, 0, 0, 0
XKQ, 15575088, 0, 1, 0, 0, 0
MOTB, 15576241, 1, 1, 1, 0.06540451, 0, 2
RCIN, 15576262, 0, 0, 0, 0, 0, 0, 0, 0, 0, 0, 0, 0, 0, 0
RCI2, 15576275, 0, 0, 0, 1
RCOU, 15576297, 1000, 1000, 1000, 1000, 0, 0, 0, 0, 0, 0, 0, 0, 0, 0
RCO2, 15576310, 0, 0, 0, 0
VIBE, 15576324, 0, 0.02275548, 0.02561569, 0.03267746, 0
IMU, 15595587, 0, -0.0004744308, 0.0001626905, 0.0001011166, 0.5782369, 0.1996768, -9.811813, 0, 0, 44.87032, 1, 1, 7999, 999
STAK, 15614426, 4, 183, 1456, 1096, monitor
RFND, 15625497, 0, 0, 1, 25, -1
SURF, 15625515, 0, 3, 0, 0, 0
SURF, 15625549, 1, 2, 0, 0, 0
IMU, 15635589, 0, 0.0002511999, -9.001483E-05, 0.0003522019, 0.5667132, 0.18584, -9.821187, 0, 0, 44.87056, 1, 1, 7999, 999
DCM, 15637498, 2.960042, 3.491328, 0.006945594, 0.2627743, 1, 0, 0, 0
POWR, 15675491, 4.595508, 4.547472, 0, 0, 2
MAG, 15675520, 0, 0, 0, 0, 0, 0, 0, 0, 0, 0, 0, 0
MAG, 15675520, 1, -293, -278, -483, 121, 127, -25, 0, 0, 0, 1, 15675517
RFND, 15675571, 0, 0, 1, 25, -1
SURF, 15675589, 0, 3, 0, 0, 0
SURF, 15675681, 1, 2, 0, 0, 0
BARO, 15675734, 0, 0.2430119, 0.2430119, 101132.3, 42.91, 0.3673435, 15675, 0, 35, 1, 101132.3
CTUN, 15675756, 0, 0, 0, 0.6540451, 0, 0, 0.24, NaN, 0, NaN, 0, 16
ATT, 15675936, 0, 2.9613, 0, 3.490557, 0.007347262, 0.007347262, 0
ANG, 15674793, 0, 2.9613, 0, 3.490557, 0.007347262, 0.007347262, 0.002506
RATE, 15674821, -13.30934, 0.03853676, -0.03148822, -15.71448, -0.002964071, -0.03691853, 0.4061327, 0.01228973, 0.001244612, 0, 2.670574, 0, 0
PIDR, 15675987, -0.232235, 0.0006725934, -0.2329076, -0.03144253, 0, -4.569248E-05, 0, 0, 1, 0.7935421, 9
PIDP, 15676003, -0.2742982, -5.173279E-05, -0.2742465, -0.03702327, 0, 0.0001047416, 0, 0, 1, 0.891582, 9
PIDY, 15676018, 0.007087281, 0.0002144963, 0.006914512, 0.001244612, 0, 0, 0, 0, 1, 0.008025547, 9
PIDA, 15676034, 0, 0, 0, 0, 0, 0, 0, 0, 0, 0, 0
XKF4, 15675115, 0, 0, 0, 0, 0, 0, 0, 0, 0, 128, 0, 0, 0, 0
XKF1, 15675115, 0, 4.08, 0.14, 0, 0, 0, 0, 0, 0, 0, 0, 0, 0, 0, 0
XKF2, 15675115, 0, 0, 0, 0, 0, 0, 0, 0, 0, 0, 0, 0, 0, 0, 0
XKF3, 15675115, 0, 0, 0, 0, 0, 0, 0, 0, 0, 0, 0, 0, 0, 0
XKF5, 15675115, 0, 0, 0, 0, 0, 0, 0, 0, 0, 0, 0, 0, 0
XKFS, 15675115, 0, 1, 0, 0, 0, 0, 0, 0, 0
XKQ, 15675115, 0, 1, 0, 0, 0
MOTB, 15676199, 1, 1, 1, 0.06540451, 0, 2
RCIN, 15676219, 0, 0, 0, 0, 0, 0, 0, 0, 0, 0, 0, 0, 0, 0
RCI2, 15676233, 0, 0, 0, 1
RCOU, 15676255, 1000, 1000, 1000, 1000, 0, 0, 0, 0, 0, 0, 0, 0, 0, 0
RCO2, 15676268, 0, 0, 0, 0
VIBE, 15676282, 0, 0.02137036, 0.02094554, 0.03458609, 0
IMU, 15676300, 0, 0.0006725934, -5.173279E-05, 0.0002144963, 0.5594209, 0.1776354, -9.815844, 0, 0, 44.87044, 1, 1, 7999, 999
IMU, 15715591, 0, -1.243094E-05, 0.0001785763, -0.00037783, 0.5853341, 0.2016851, -9.820841, 0, 0, 44.87019, 1, 1, 7999, 999
STAK, 15715823, 5, 181, 1968, 1464, timer
RFND, 15725470, 0, 0, 1, 25, -1
SURF, 15725488, 0, 3, 0, 0, 0
SURF, 15725519, 1, 2, 0, 0, 0
DCM, 15737500, 2.962076, 3.489579, 0.007402183, 0.2103084, 1, 0, 0, 0
MAV, 15753098, 0, 213, 34, 0, 6, 0, 0
IMU, 15755701, 0, -0.0008918168, -4.59635E-05, -0.0002997158, 0.5860802, 0.2033608, -9.826397, 0, 0, 44.8696, 1, 1, 7999, 999
POWR, 15775494, 4.603564, 4.595824, 0, 0, 2
MAG, 15775519, 0, 0, 0, 0, 0, 0, 0, 0, 0, 0, 0, 0
MAG, 15775519, 1, -293, -276, -484, 121, 127, -25, 0, 0, 0, 1, 15775516
RFND, 15775573, 0, 0, 1, 25, -1
SURF, 15775591, 0, 3, 0, 0, 0
SURF, 15775683, 1, 2, 0, 0, 0
BARO, 15775736, 0, 0.07629443, 0.07629443, 101134.2, 42.92, 0.2728585, 15775, 0, 35, 1, 101134.2
CTUN, 15775758, 0, 0, 0, 0.6540451, 0, 0, 0.07, NaN, 0, NaN, 0, 36
ATT, 15775922, 0, 2.961605, 0, 3.48835, 0.007884204, 0.007884204, 0
ANG, 15774787, 0, 2.961605, 0, 3.48835, 0.007884204, 0.007884204, 0.0025
RATE, 15774808, -13.31069, -0.03207657, -0.03138025, -15.7045, 0.008364998, -0.03706809, 0.4059176, 0.02190795, 0.001282123, 0, 2.938366, 0, 0
PIDR, 15775974, -0.232296, -0.0005598419, -0.2317361, -0.03128438, 0, -9.587403E-05, 0, 0, 1, 0.7179412, 9
PIDP, 15775989, -0.2741094, 0.0001459968, -0.2742554, -0.03702448, 0, -4.360775E-05, 0, 0, 1, 0.8066406, 9
PIDY, 15776005, 0.007084332, 0.0003823658, 0.007122907, 0.001282123, 0, 0, 0, 0, 1, 0.007320187, 9
PIDA, 15776027, 0, 0, 0, 0, 0, 0, 0, 0, 0, 0, 0
XKF4, 15775095, 0, 0, 0, 0, 0, 0, 0, 0, 0, 128, 0, 0, 0, 0
XKF1, 15775095, 0, 4.08, 0.14, 0, 0, 0, 0, 0, 0, 0, 0, 0, 0, 0, 0
XKF2, 15775095, 0, 0, 0, 0, 0, 0, 0, 0, 0, 0, 0, 0, 0, 0, 0
XKF3, 15775095, 0, 0, 0, 0, 0, 0, 0, 0, 0, 0, 0, 0, 0, 0
XKF5, 15775095, 0, 0, 0, 0, 0, 0, 0, 0, 0, 0, 0, 0, 0
XKFS, 15775095, 0, 1, 0, 0, 0, 0, 0, 0, 0
XKQ, 15775095, 0, 1, 0, 0, 0
XKV1, 15775095, 0, 0, 0, 0, 0, 0, 0, 0, 0, 0, 0, 0, 0
XKV2, 15775095, 0, 0, 0, 0, 0, 0, 0, 0, 0, 0, 0, 0, 0
MOTB, 15776231, 1, 1, 1, 0.06540451, 0, 2
RCIN, 15776251, 0, 0, 0, 0, 0, 0, 0, 0, 0, 0, 0, 0, 0, 0
RCI2, 15776265, 0, 0, 0, 1
RCOU, 15776287, 1000, 1000, 1000, 1000, 0, 0, 0, 0, 0, 0, 0, 0, 0, 0
RCO2, 15776300, 0, 0, 0, 0
VIBE, 15776314, 0, 0.01989851, 0.01855859, 0.0339148, 0
IMU, 15795575, 0, 2.712225E-06, 0.0005317037, 0.0002020501, 0.5741848, 0.2001185, -9.824399, 0, 0, 44.86953, 1, 1, 7999, 999
FMT, 253, 64, CANS, QBIIIIIIIIIIIII, TimeUS,I,T,Trq,Trej,Tov,Tto,Tab,R,Rov,Rer,Bo,Etx,Stx,Ftx
CANS, 15801921, 0, 0, 1, 0, 0, 0, 0, 0, 0, 0, 0, 0, 0, 0
STAK, 15816933, 6, 181, 944, 664, rcout
RFND, 15825441, 0, 0, 1, 25, -1
SURF, 15825459, 0, 3, 0, 0, 0
SURF, 15825501, 1, 2, 0, 0, 0
IMU, 15835692, 0, 0.0003691009, 0.0001617868, 0.0007846142, 0.5856051, 0.1999028, -9.780394, 0, 0, 44.86952, 1, 1, 7999, 999
DCM, 15837502, 2.96366, 3.486347, 0.008958924, 0.2103084, 1, 0, 0, 0
POWR, 15875485, 4.598731, 4.600659, 0, 0, 2
MAG, 15875529, 0, 0, 0, 0, 0, 0, 0, 0, 0, 0, 0, 0
MAG, 15875529, 1, -293, -276, -483, 121, 127, -25, 0, 0, 0, 1, 15875525
RFND, 15875589, 0, 0, 1, 25, -1
SURF, 15875672, 0, 3, 0, 0, 0
SURF, 15875699, 1, 2, 0, 0, 0
BARO, 15875752, 0, 0.1893232, 0.1893232, 101132.9, 42.91, -0.3717587, 15875, 0, 35, 1, 101132.9
CTUN, 15875774, 0, 0, 0, 0.6540451, 0, 0, 0.18, NaN, 0, NaN, 0, 27
ATT, 15875938, 0, 2.965607, 0, 3.486, 0.00812218, 0.00812218, 0
ANG, 15874787, 0, 2.965607, 0, 3.486, 0.00812218, 0.00812218, 0.0025
RATE, 15874808, -13.32874, 0.01931164, -0.03138263, -15.69398, 0.01198931, -0.03689464, 0.4061924, -0.02846371, 0.001270799, 0, 4.22945, 0, 0
PIDR, 15875990, -0.2325956, 0.0003370518, -0.2329327, -0.03144591, 0, 6.32771E-05, 0, 0, 1, 0.6495385, 9
PIDP, 15876005, -0.2739269, 0.0002092529, -0.2741362, -0.03700838, 0, 0.0001137414, 0, 0, 1, 0.7297873, 9
PIDY, 15876021, 0.007088743, -0.0004967855, 0.007059991, 0.001270799, 0, 0, 0, 0, 1, 0.006843727, 9
PIDA, 15876036, 0, 0, 0, 0, 0, 0, 0, 0, 0, 0, 0
XKF4, 15875102, 0, 0, 0, 0, 0, 0, 0, 0, 0, 128, 0, 0, 0, 0
XKF1, 15875102, 0, 4.08, 0.14, 0, 0, 0, 0, 0, 0, 0, 0, 0, 0, 0, 0
XKF2, 15875102, 0, 0, 0, 0, 0, 0, 0, 0, 0, 0, 0, 0, 0, 0, 0
XKF3, 15875102, 0, 0, 0, 0, 0, 0, 0, 0, 0, 0, 0, 0, 0, 0
XKF5, 15875102, 0, 0, 0, 0, 0, 0, 0, 0, 0, 0, 0, 0, 0
XKFS, 15875102, 0, 1, 0, 0, 0, 0, 0, 0, 0
XKQ, 15875102, 0, 1, 0, 0, 0
MOTB, 15876202, 1, 1, 1, 0.06540451, 0, 2
RCIN, 15876222, 0, 0, 0, 0, 0, 0, 0, 0, 0, 0, 0, 0, 0, 0
RCI2, 15876236, 0, 0, 0, 1
RCOU, 15876258, 1000, 1000, 1000, 1000, 0, 0, 0, 0, 0, 0, 0, 0, 0, 0
RCO2, 15876271, 0, 0, 0, 0
VIBE, 15876285, 0, 0.02085046, 0.02101141, 0.03428804, 0
IMU, 15876304, 0, 0.0003370518, 0.0002092529, -0.0004967855, 0.5605466, 0.1971112, -9.831016, 0, 0, 44.86983, 1, 1, 7999, 999
IMU, 15915622, 0, -0.0002781737, 0.0002859832, 0.0002586164, 0.5620933, 0.1972025, -9.79121, 0, 0, 44.87126, 1, 1, 7999, 999
STAK, 15916955, 7, 177, 1456, 1088, rcin
RFND, 15925409, 0, 0, 1, 25, -1
SURF, 15925438, 0, 3, 0, 0, 0
SURF, 15925473, 1, 2, 0, 0, 0
DCM, 15937505, 2.962984, 3.48803, 0.009011055, 0.1683515, 1, 0, 0, 0
IMU, 15955678, 0, 1.424993E-05, 0.0005231581, 8.924027E-06, 0.570226, 0.2030562, -9.835113, 0, 0, 44.87354, 1, 1, 7999, 999
POWR, 15975443, 4.595508, 4.600659, 0, 0, 2
MAG, 15975468, 0, 0, 0, 0, 0, 0, 0, 0, 0, 0, 0, 0
MAG, 15975468, 1, -293, -276, -483, 121, 127, -25, 0, 0, 0, 1, 15975465
RFND, 15975519, 0, 0, 1, 25, -1
SURF, 15975540, 0, 3, 0, 0, 0
SURF, 15975580, 1, 2, 0, 0, 0
BARO, 15975719, 0, 0.2175804, 0.2175804, 101132.6, 42.91, -0.6499155, 15975, 0, 35, 1, 101132.6
CTUN, 15975741, 0, 0, 0, 0.6540451, 0, 0, 0.21, NaN, 0, NaN, 0, -37
ATT, 15976146, 0, 2.961863, 0, 3.490112, 0.009862876, 0.009862876, 0
ANG, 15974788, 0, 2.961863, 0, 3.490112, 0.009862876, 0.009862876, 0.002502
RATE, 15974809, -13.31193, 0.002166326, -0.03137674, -15.71254, 0.05555582, -0.03722665, 0.406158, 0.05273294, 0.001232514, 0, 1.971531, 0, 0
PIDR, 15976214, -0.2323424, 3.780952E-05, -0.2323802, -0.03137133, 0, -5.413852E-06, 0, 0, 1, 0.5876526, 9
PIDP, 15976230, -0.2741894, 0.0009696321, -0.275159, -0.03714647, 0, -8.018706E-05, 0, 0, 1, 0.6602556, 9
PIDY, 15976245, 0.007087783, 0.0009203635, 0.006847301, 0.001232514, 0, 0, 0, 0, 1, 0.00673756, 9
PIDA, 15976261, 0, 0, 0, 0, 0, 0, 0, 0, 0, 0, 0
XKF4, 15975106, 0, 0, 0, 0, 0, 0, 0, 0, 0, 128, 0, 0, 0, 0
XKF1, 15975106, 0, 4.08, 0.14, 0, 0, 0, 0, 0, 0, 0, 0, 0, 0, 0, 0
XKF2, 15975106, 0, 0, 0, 0, 0, 0, 0, 0, 0, 0, 0, 0, 0, 0, 0
XKF3, 15975106, 0, 0, 0, 0, 0, 0, 0, 0, 0, 0, 0, 0, 0, 0
XKF5, 15975106, 0, 0, 0, 0, 0, 0, 0, 0, 0, 0, 0, 0, 0
XKFS, 15975106, 0, 1, 0, 0, 0, 0, 0, 0, 0
XKQ, 15975106, 0, 1, 0, 0, 0
MOTB, 15976401, 1, 1, 1, 0.06540451, 0, 2
RCIN, 15976421, 0, 0, 0, 0, 0, 0, 0, 0, 0, 0, 0, 0, 0, 0
RCI2, 15976438, 0, 0, 0, 1
RCOU, 15976460, 1000, 1000, 1000, 1000, 0, 0, 0, 0, 0, 0, 0, 0, 0, 0
RCO2, 15976472, 0, 0, 0, 0
VIBE, 15976487, 0, 0.0208245, 0.02314721, 0.03239238, 0
IMU, 15995582, 0, 0.0005560267, 0.001185423, -0.0004595014, 0.5817167, 0.1662348, -9.820646, 0, 0, 44.87687, 1, 1, 7999, 999
STAK, 16016956, 8, 58, 2480, 1576, io
RFND, 16025477, 0, 0, 1, 25, -1
SURF, 16025495, 0, 3, 0, 0, 0
SURF, 16025526, 1, 2, 0, 0, 0
IMU, 16035581, 0, 5.010669E-05, 0.001014379, 0.0004491125, 0.568736, 0.2004711, -9.82815, 0, 0, 44.88126, 1, 1, 7999, 999
DCM, 16037512, 2.960066, 3.494426, 0.009502376, 0.1683515, 1, 0, 0, 0
POWR, 16075483, 4.581006, 4.595824, 0, 0, 2
MAG, 16075509, 0, 0, 0, 0, 0, 0, 0, 0, 0, 0, 0, 0
MAG, 16075509, 1, -292, -277, -481, 121, 127, -25, 0, 0, 0, 1, 16075505
RFND, 16075572, 0, 0, 1, 25, -1
SURF, 16075590, 0, 3, 0, 0, 0
SURF, 16075682, 1, 2, 0, 0, 0
BARO, 16075742, 0, 0.0141286, 0.0141286, 101134.9, 42.92, -0.3090631, 16075, 0, 35, 1, 101134.9
CTUN, 16075765, 0, 0, 0, 0.6540451, 0, 0, 0.01, NaN, 0, NaN, 0, -64
ATT, 16075928, 0, 2.960196, 0, 3.495954, 0.008516176, 0.008516176, 0
ANG, 16074787, 0, 2.960196, 0, 3.495954, 0.008516176, 0.008516176, 0.002501
RATE, 16074808, -13.30439, 0.07565842, -0.03175762, -15.73885, 0.02097685, -0.03711334, 0.4066094, -0.02545024, 0.001300452, 0, 2.653122, 0, 0
PIDR, 16075994, -0.2321686, 0.001320489, -0.2334891, -0.03152103, 0, -0.0002365858, 0, 0, 1, 0.5361851, 9
PIDP, 16076010, -0.274662, 0.0003661152, -0.2750281, -0.03712879, 0, 1.54498E-05, 0, 0, 1, 0.5973499, 9
PIDY, 16076025, 0.00709473, -0.0004441905, 0.007224732, 0.001300452, 0, 0, 0, 0, 1, 0.006210363, 9
PIDA, 16076041, 0, 0, 0, 0, 0, 0, 0, 0, 0, 0, 0
XKF4, 16075102, 0, 0, 0, 0, 0, 0, 0, 0, 0, 128, 0, 0, 0, 0
XKF1, 16075102, 0, 4.08, 0.14, 0, 0, 0, 0, 0, 0, 0, 0, 0, 0, 0, 0
XKF2, 16075102, 0, 0, 0, 0, 0, 0, 0, 0, 0, 0, 0, 0, 0, 0, 0
XKF3, 16075102, 0, 0, 0, 0, 0, 0, 0, 0, 0, 0, 0, 0, 0, 0
XKF5, 16075102, 0, 0, 0, 0, 0, 0, 0, 0, 0, 0, 0, 0, 0
XKFS, 16075102, 0, 1, 0, 0, 0, 0, 0, 0, 0
XKQ, 16075102, 0, 1, 0, 0, 0
MOTB, 16076192, 1, 1, 1, 0.06540451, 0, 2
RCIN, 16076212, 0, 0, 0, 0, 0, 0, 0, 0, 0, 0, 0, 0, 0, 0
RCI2, 16076226, 0, 0, 0, 1
RCOU, 16076248, 1000, 1000, 1000, 1000, 0, 0, 0, 0, 0, 0, 0, 0, 0, 0
RCO2, 16076260, 0, 0, 0, 0
VIBE, 16076281, 0, 0.02191362, 0.0214642, 0.0297441, 0
IMU, 16076300, 0, 0.001320489, 0.0003661152, -0.0004441905, 0.5774181, 0.1969302, -9.81424, 0, 0, 44.88599, 1, 1, 7999, 999
IMU, 16115678, 0, 0.0006633215, 0.000274724, 0.0001460328, 0.5890664, 0.1857177, -9.797597, 0, 0, 44.88955, 1, 1, 7999, 999
STAK, 16117070, 9, 59, 1456, 1000, storage
RFND, 16125442, 0, 0, 1, 25, -1
SURF, 16125469, 0, 3, 0, 0, 0
SURF, 16125496, 1, 2, 0, 0, 0
DCM, 16137495, 2.963241, 3.49483, 0.009013847, 0.1347176, 1, 0, 0, 0
IMU, 16155688, 0, 0.0001221595, 0.000390878, -0.000381688, 0.5655895, 0.1773084, -9.831036, 0, 0, 44.89299, 1, 1, 7999, 999
POWR, 16175494, 4.58584, 4.593406, 0, 0, 2
MAG, 16175523, 0, 0, 0, 0, 0, 0, 0, 0, 0, 0, 0, 0
MAG, 16175523, 1, -291, -280, -480, 121, 127, -25, 0, 0, 0, 1, 16175516
RFND, 16175574, 0, 0, 1, 25, -1
SURF, 16175592, 0, 3, 0, 0, 0
SURF, 16175684, 1, 2, 0, 0, 0
BARO, 16175736, 0, 0, 0, 101135, 42.92, -0.1501163, 16175, 0, 35, 1, 101135
CTUN, 16175758, 0, 0, 0, 0.6540451, 0, 0, 0, NaN, 0, NaN, 0, -30
ATT, 16175929, 0, 2.963474, 0, 3.494488, 0.008808762, 0.008809672, 0
ANG, 16174787, 0, 2.963474, 0, 3.494488, 0.008808762, 0.008809672, 0.0025
RATE, 16174808, -13.31909, 0.01177406, -0.03139435, -15.73221, 0.00150754, -0.03703597, 0.4068849, 0.008929092, 0.001284948, 0, 2.348518, 0, 0
PIDR, 16175981, -0.2324684, 0.0002054962, -0.2326739, -0.03141098, 0, 1.663262E-05, 0, 0, 1, 0.4873896, 9
PIDP, 16175996, -0.2746015, 2.631153E-05, -0.2746278, -0.03707475, 0, 3.87822E-05, 0, 0, 1, 0.540437, 9
PIDY, 16176012, 0.007102336, 0.0001558421, 0.007138602, 0.001284948, 0, 0, 0, 0, 1, 0.005733389, 9
PIDA, 16176027, 0, 0, 0, 0, 0, 0, 0, 0, 0, 0, 0
XKF4, 16175111, 0, 0, 0, 0, 0, 0, 0, 0, 0, 128, 0, 0, 0, 0
XKF1, 16175111, 0, 4.08, 0.14, 0, 0, 0, 0, 0, 0, 0, 0, 0, 0, 0, 0
XKF2, 16175111, 0, 0, 0, 0, 0, 0, 0, 0, 0, 0, 0, 0, 0, 0, 0
XKF3, 16175111, 0, 0, 0, 0, 0, 0, 0, 0, 0, 0, 0, 0, 0, 0
XKF5, 16175111, 0, 0, 0, 0, 0, 0, 0, 0, 0, 0, 0, 0, 0
XKFS, 16175111, 0, 1, 0, 0, 0, 0, 0, 0, 0
XKQ, 16175111, 0, 1, 0, 0, 0
MOTB, 16176193, 1, 1, 1, 0.06540451, 0, 2
RCIN, 16176213, 0, 0, 0, 0, 0, 0, 0, 0, 0, 0, 0, 0, 0, 0
RCI2, 16176226, 0, 0, 0, 1
RCOU, 16176257, 1000, 1000, 1000, 1000, 0, 0, 0, 0, 0, 0, 0, 0, 0, 0
RCO2, 16176270, 0, 0, 0, 0
VIBE, 16176284, 0, 0.02477597, 0.02038217, 0.03245547, 0
IMU, 16195670, 0, -0.0008284466, 0.0006749025, 0.000158728, 0.5752781, 0.2008927, -9.801082, 0, 0, 44.89599, 1, 1, 7999, 999
STAK, 16218545, 10, 60, 752, 296, UART2
RFND, 16225427, 0, 0, 1, 25, -1
SURF, 16225461, 0, 3, 0, 0, 0
SURF, 16225488, 1, 2, 0, 0, 0
IMU, 16235580, 0, 0.001033068, 3.585756E-05, 9.442936E-05, 0.5635384, 0.1989866, -9.814498, 0, 0, 44.89843, 1, 1, 7999, 999
DCM, 16237495, 2.964428, 3.494873, 0.009791842, 0.1347176, 1, 0, 0, 0
MSG, 16241081, EKF3 IMU0 initialised
MSG, 16242821, EKF3 IMU0 switching to compass 1
MSG, 16242986, AHRS: EKF3 active
DSF, 16243363, 23, 375, 14443, 11434, 16323, 13686
POWR, 16275472, 4.605175, 4.557143, 0, 0, 2
MAG, 16275498, 0, 0, 0, 0, 0, 0, 0, 0, 0, 0, 0, 0
MAG, 16275498, 1, -292, -277, -483, 121, 127, -25, 0, 0, 0, 1, 16275494
RFND, 16275548, 0, 0, 1, 25, -1
SURF, 16275566, 0, 3, 0, 0, 0
SURF, 16275597, 1, 2, 0, 0, 0
BARO, 16275719, 0, 0.1158545, 0.1158545, 101133.7, 42.92, -0.4088463, 16275, 0, 35, 1, 101133.7
CTUN, 16275741, 0, 0, 0, 0.6540451, 0, 0, 0.11, NaN, 0, NaN, 0, 0
DU32, 16275785, 7, 4251784
ATT, 16276000, 0, 2.87893, 0, 3.414741, 0.008029742, 0.0007766039, 3
ANG, 16274791, 0, 2.879353, 0, 3.414559, 0.008029742, 0.008029742, 0.002504
RATE, 16274812, -12.94169, 0.02314296, -0.03028579, -15.37192, -0.01740333, -0.03593766, 0.3862863, 0.02016719, 0.00122298, 0, 2.698517, 0, 0
PIDR, 16276052, -0.2260435, 0.0004039209, -0.2264474, -0.03057041, 0, 0.0002846197, 0, 0, 1, 0.4581012, 9
PIDP, 16276068, -0.2684447, -0.0003037455, -0.2681409, -0.03619903, 0, 0.0002613628, 0, 0, 1, 0.5047762, 9
PIDY, 16276083, 0.006750977, 0.0003519839, 0.006794332, 0.00122298, 0, 0, 0, 0, 1, 0.005223154, 9
PIDA, 16276099, 0, 0, 0, 0, 0, 0, 0, 0, 0, 0, 0
XKF4, 16275095, 0, 0, 0, 0, 0, 0, 0.1413582, 0, 0, 0, 50, 0, 0, 0
XKF1, 16275095, 0, 2.87, 3.41, 0, 0.0005410395, -0.001114963, 0.00218248, -0.0009847715, 0, 0, 2.211075E-05, 0, 0, 0, 0
XKF2, 16275095, 0, 0, 0, 0, 0, 0, 0, 0, 0, 0, 0, 0, 0, 0, 0
XKF3, 16275095, 0, 0, 0, 0, 0, 0, 0, 0, 0, 0, 0, 0, 0, 0
XKF5, 16275095, 0, 0, 0, 0, 0, 0.13, 0.13, 0, 0, 0.5, 1.00738E-09, 0.03359336, 6.173067E-05
XKFS, 16275095, 0, 1, 0, 0, 0, 0, 0, 0, 0
XKQ, 16275095, 0, 0.9995377, -0.01048941, 0.02853573, 0.0003062308
XKV1, 16275095, 0, 2.311004E-06, 0.002499799, 0.00249804, 0.002500075, 0.09001907, 0.09001907, 0.250019, 0.2500291, 0.2500291, 4.000082, 0, 0
XKV2, 16275095, 0, 0, 5E-08, 5E-08, 5E-08, 0, 0, 0, 0, 0, 0, 0, 0
AHR2, 16276290, 2.96, 3.49, 0.01, NaN, 0, 0, 0.9992003, 0.02585951, 0.03048541, -0.0007433399
MOTB, 16276308, 1, 1, 1, 0.06540451, 0, 2
RCIN, 16276328, 0, 0, 0, 0, 0, 0, 0, 0, 0, 0, 0, 0, 0, 0
RCI2, 16276341, 0, 0, 0, 1
RCOU, 16276363, 1000, 1000, 1000, 1000, 0, 0, 0, 0, 0, 0, 0, 0, 0, 0
RCO2, 16276376, 0, 0, 0, 0
VIBE, 16276390, 0, 0.02271019, 0.02181334, 0.0296162, 0
IMU, 16276409, 0, 0.0004039209, -0.0003037455, 0.0003519839, 0.5797169, 0.1694286, -9.815156, 0, 0, 44.89966, 1, 1, 7999, 999
UART, 16276467, 0, 1433, 21, 0
UART, 16276480, 1, 17, 0, 0
UART, 16276494, 4, 17, 0, 0
UART, 16276508, 6, 8332, 5086, 0
IMU, 16315667, 0, 0.0001951829, 0.001113778, -0.0005616627, 0.5710138, 0.1923089, -9.840689, 0, 0, 44.90146, 1, 1, 7999, 999
STAK, 16318374, 11, 60, 752, 424, UART3
RFND, 16325438, 0, 0, 1, 25, -1
SURF, 16325456, 0, 3, 0, 0, 0
SURF, 16325483, 1, 2, 0, 0, 0
DCM, 16337513, 2.966171, 3.496668, 0.009943814, 0.10783, 1, 0, 0, 0
IMU, 16355693, 0, 0.0007938824, 0.0003821059, 0.0002624616, 0.5728447, 0.1967178, -9.806485, 0, 0, 44.9034, 1, 1, 7999, 999
POWR, 16375470, 4.600342, 4.603077, 0, 0, 2
MAG, 16375504, 0, 0, 0, 0, 0, 0, 0, 0, 0, 0, 0, 0
MAG, 16375504, 1, -293, -276, -484, 121, 127, -25, 0, 0, 0, 1, 16375497
RFND, 16375567, 0, 0, 1, 25, -1
SURF, 16375584, 0, 3, 0, 0, 0
SURF, 16375691, 1, 2, 0, 0, 0
BARO, 16375761, 0, 0.5962268, 0.5962268, 101128.3, 42.92, -0.2693264, 16375, 0, 35, 1, 101128.3
CTUN, 16375783, 0, 0, 0, 0.6540451, 0, 0, 0.59, NaN, 0, NaN, 0, -1
ATT, 16375947, 0, 2.880563, 0, 3.4193, 0.006408375, 359.9991, 3
ANG, 16374787, 0, 2.880986, 0, 3.419118, 0.006408375, 0.006408375, 0.0025
RATE, 16374808, -12.94906, 0.04594594, -0.03054307, -15.39253, 0.04223688, -0.03636803, 0.3870219, -0.04480636, 0.001245597, 0, 2.671623, 0, 0
PIDR, 16376005, -0.2259794, 0.000801908, -0.2267813, -0.03061548, 0, 7.240782E-05, 0, 0, 1, 0.4475923, 9
PIDP, 16376021, -0.2686266, 0.0007371727, -0.2693637, -0.0363641, 0, -3.925132E-06, 0, 0, 1, 0.4695791, 9
PIDY, 16376036, 0.006753412, -0.0007820186, 0.006919982, 0.001245597, 0, 0, 0, 0, 1, 0.004725534, 9
PIDA, 16376052, 0, 0, 0, 0, 0, 0, 0, 0, 0, 0, 0
XKF4, 16375092, 0, 0, 0, 0, 0, 0, 0.1413596, 0, 0, 0, 50, 0, 0, 0
XKF1, 16375092, 0, 2.88, 3.41, 359.99, 0.001468631, -0.0023057, 0.01696852, 0.009010619, 0, 0, 0.001611593, 0, 0, 0, 0
XKF2, 16375092, 0, 0, 0, 0, 0, 0, 430, 4, -460, 0, 0, 0, 0, 0, 0
XKF3, 16375092, 0, 0, 0, 0, 0, 0, 0, 0, 0, 0, 0, 0, 0, 0
XKF5, 16375092, 0, 0, 0, 0, 0, 0.13, 0.13, 0, 0, 0.5, 1.027163E-05, 0.03931504, 0.003706384
XKFS, 16375092, 0, 1, 0, 0, 0, 0, 0, 0, 0
XKQ, 16375092, 0, 0.9995368, -0.01047476, 0.02857565, 0.0002920623
AHR2, 16376200, 2.96, 3.49, 0, 0.11, 0, 0, 0.9991992, 0.02588367, 0.03050215, -0.0007572724
MOTB, 16376217, 1, 1, 1, 0.06540451, 0, 2
RCIN, 16376237, 0, 0, 0, 0, 0, 0, 0, 0, 0, 0, 0, 0, 0, 0
RCI2, 16376264, 0, 0, 0, 1
RCOU, 16376287, 1000, 1000, 1000, 1000, 0, 0, 0, 0, 0, 0, 0, 0, 0, 0
RCO2, 16376299, 0, 0, 0, 0
VIBE, 16376314, 0, 0.02110654, 0.02318325, 0.03101782, 0
IMU, 16395577, 0, 0.0004953284, 0.0007132491, -0.0002236083, 0.5705885, 0.1930155, -9.813273, 0, 0, 44.90448, 1, 1, 7999, 999
STAK, 16418296, 12, 60, 752, 392, UART8
RFND, 16425427, 0, 0, 1, 25, -1
SURF, 16425455, 0, 3, 0, 0, 0
SURF, 16425482, 1, 2, 0, 0, 0
IMU, 16435952, 0, 0.001129546, 0.0007574586, 1.237225E-05, 0.5691653, 0.1871739, -9.802091, 0, 0, 44.9056, 1, 1, 7999, 999
DCM, 16437500, 2.970291, 3.497471, 0.008773367, 0.10783, 1, 0, 0, 0
POWR, 16475561, 4.587451, 4.595824, 0, 0, 2
MAG, 16475587, 0, 0, 0, 0, 0, 0, 0, 0, 0, 0, 0, 0
MAG, 16475587, 1, -293, -278, -483, 121, 127, -25, 0, 0, 0, 1, 16475583
RFND, 16475702, 0, 0, 1, 25, -1
SURF, 16475720, 0, 3, 0, 0, 0
SURF, 16475778, 1, 2, 0, 0, 0
BARO, 16475831, 0, 0.2599662, 0.2599662, 101132.1, 42.92, 0.6543307, 16475, 0, 35, 1, 101132.1
CTUN, 16475904, 0, 0, 0, 0.6540451, 0, 0, 0.25, NaN, 0, NaN, 0, -2
ATT, 16476305, 0, 2.883472, 0, 3.422588, 0.006554245, 359.9993, 3
ANG, 16474793, 0, 2.883896, 0, 3.422406, 0.006554245, 0.006555785, 0.002506
RATE, 16474821, -12.96209, 0.04773867, -0.03058443, -15.40732, 0.04414474, -0.03664248, 0.3877788, 0.008351528, 0.001218021, 0, 4.168034, 0, 0
PIDR, 16476365, -0.2262039, 0.000833197, -0.2270371, -0.03065002, 0, 6.558526E-05, 0, 0, 1, 0.4114551, 9
PIDP, 16476391, -0.2688541, 0.0007704711, -0.2696246, -0.03639932, 0, -0.0002431647, 0, 0, 1, 0.4290014, 9
PIDY, 16476407, 0.006765974, 0.0001457617, 0.006766785, 0.001218021, 0, 0, 0, 0, 1, 0.004275278, 9
PIDA, 16476422, 0, 0, 0, 0, 0, 0, 0, 0, 0, 0, 0
XKF4, 16475142, 0, 0, 0, 0, 0, 0, 0.1413615, 0, 0, 0, 50, 0, 0, 0
XKF1, 16475142, 0, 2.88, 3.42, 359.99, 0.002518635, -0.003089047, 0.02662376, 0.03956912, 0, 0, 0.005839453, 0, 0, 0, 0
XKF2, 16475142, 0, 0, 0, 0, 0, 0, 430, 4, -460, 0, 0, 0, 0, 0, 0
XKF3, 16475142, 0, 0, 0, 0, 0, 0, 0, 0, 0, 0, 0, 0, 0, 0
XKF5, 16475142, 0, 0, 0, 0, 0, 0.13, 0.13, 0, 0, 0.5, 9.102186E-06, 0.02554638, 0.005827366
XKFS, 16475142, 0, 1, 0, 0, 0, 0, 0, 0, 0
XKQ, 16475142, 0, 0.9995362, -0.01044941, 0.02860433, 0.0002928584
AHR2, 16476576, 2.97, 3.49, 0, 0.59, 0, 0, 0.9991981, 0.02592093, 0.03050825, -0.000755802
MOTB, 16476593, 1, 1, 1, 0.06540451, 0, 2
RCIN, 16476685, 0, 0, 0, 0, 0, 0, 0, 0, 0, 0, 0, 0, 0, 0
RCI2, 16476699, 0, 0, 0, 1
RCOU, 16476721, 1000, 1000, 1000, 1000, 0, 0, 0, 0, 0, 0, 0, 0, 0, 0
RCO2, 16476734, 0, 0, 0, 0
VIBE, 16476748, 0, 0.02068162, 0.02364431, 0.03056464, 0
IMU, 16476767, 0, 0.000833197, 0.0007704711, 0.0001457617, 0.5650073, 0.2036892, -9.829999, 0, 0, 44.90745, 1, 1, 8000, 1000
IMU, 16515672, 0, -0.0003236751, -3.876384E-06, -0.0003820773, 0.5959047, 0.189499, -9.821296, 0, 0, 44.91172, 1, 1, 8000, 1000
IOMC, 16518189, 0, 608, 22325, 1957, 0, 0, 0
STAK, 16519551, 13, 181, 752, 344, UART6
RFND, 16525411, 0, 0, 1, 25, -1
SURF, 16525429, 0, 3, 0, 0, 0
SURF, 16525459, 1, 2, 0, 0, 0
DCM, 16537501, 2.970026, 3.496106, 0.008697165, 0.08639187, 1, 0, 0, 0
IMU, 16555699, 0, 0.0009404899, 0.0004667274, 0.0004412743, 0.5741829, 0.2003312, -9.811369, 0, 0, 44.91601, 1, 1, 8000, 1000
POWR, 16575462, 4.587451, 4.574066, 0, 0, 2
MAG, 16575491, 0, 0, 0, 0, 0, 0, 0, 0, 0, 0, 0, 0
MAG, 16575491, 1, -292, -280, -480, 121, 127, -25, 0, 0, 0, 1, 16575484
RFND, 16575561, 0, 0, 1, 25, -1
SURF, 16575665, 0, 3, 0, 0, 0
SURF, 16575697, 1, 2, 0, 0, 0
BARO, 16575762, 0, 0.05934011, 0.05934011, 101134.4, 42.92, 1.189451, 16575, 0, 35, 1, 101134.4
CTUN, 16575784, 0, 0, 0, 0.6540451, 0, 0, 0.05, NaN, 0, NaN, 0, -3
ATT, 16575948, 0, 2.884142, 0, 3.423829, 0.006561183, 359.9993, 3
ANG, 16574787, 0, 2.884567, 0, 3.423646, 0.006561183, 0.006561183, 0.0025
