FMT, 128, 89, FMT, BBnNZ, Type,Length,Name,Format,Columns
FMT, 116, 44, FMTU, QBNN, TimeUS,FmtType,UnitIds,MultIds
FMT, 3, 16, D32, QBi, TimeUS,Id,Value
D32, 131333397, 9, 10465
FMT, 32, 35, PARM, QNff, TimeUS,Name,Value,Default
FMT, 181, 12, EV, QB, TimeUS,Id
EV, 131334035, 60
FMT, 120, 14, MODE, QMBB, TimeUS,Mode,ModeNum,Rsn
MODE, 131334217, 2, 2, 1
FMT, 246, 18, AUXF, QHBBHB, TimeUS,function,pos,source,index,result
AUXF, 131334372, 153, 2, 1, 5, 1
FMT, 60, 39, RCIN, QHHHHHHHHHHHHHH, TimeUS,C1,C2,C3,C4,C5,C6,C7,C8,C9,C10,C11,C12,C13,C14
RCIN, 131334599, 1490, 1495, 982, 1459, 1495, 2006, 982, 1495, 1495, 1495, 1495, 1495, 1495, 1495
FMT, 61, 18, RCI2, QHHHB, TimeUS,C15,C16,OMask,Flags
RCI2, 131334675, 1495, 1495, 0, 1
FMT, 114, 19, RFND, QBfBBb, TimeUS,Instance,Dist,Stat,Orient,Quality
RFND, 131335575, 0, 0.086, 2, 25, -1
FMT, 250, 25, SURF, QBBfff, TimeUS,I,St,D,FD,TO
SURF, 131335644, 0, 3, 0.08, 0, -1.094355
SURF, 131335754, 1, 2, 0, 0, -1.014355
FMT, 64, 47, BARO, QBfffcfIffBf, TimeUS,I,Alt,AltAMSL,Press,Temp,CRt,SMS,Offset,GndTemp,H,CPress
BARO, 131335806, 0, -0.3560407, -0.3560407, 101125.4, 38.08, 1.329713, 131335, 0, 35, 1, 101125.4
FMT, 0, 55, CTUN, Qffffffefffhh, TimeUS,ThI,ABst,ThO,ThH,DAlt,Alt,BAlt,DSAlt,SAlt,TAlt,DCRt,CRt
CTUN, 131335905, 0, 0, 0, 0.6618701, -1.037449, -1.037449, -0.35, NaN, 0.08, 24.51484, -2, -2
FMT, 72, 36, ATT, QffffffB, TimeUS,DesRoll,Roll,DesPitch,Pitch,DesYaw,Yaw,AEKF
ATT, 131336136, -0.000367268, -0.2464452, 1.300139E-05, -0.1643813, 104.6692, 104.6597, 3
FMT, 195, 39, ANG, Qfffffff, TimeUS,DesRoll,Roll,DesPitch,Pitch,DesYaw,Yaw,Dt
ANG, 131334789, -0.000367268, -0.2463031, 1.300139E-05, -0.1643617, 104.6692, 104.6688, 0.010902
FMT, 75, 63, RATE, Qfffffffffffff, TimeUS,RDes,R,ROut,PDes,P,POut,YDes,Y,YOut,ADes,A,AOut,AOutSlew
RATE, 131334807, 1.11015, -0.02261866, 0.002810129, 0.7403535, 0.04929307, 0.001650462, 0.003680618, 0.06858493, -0.0001617879, -1.095867, -1.095867, 0, 0
FMT, 103, 52, PIDR, QffffffffffB, TimeUS,Tar,Act,Err,P,I,D,FF,DFF,Dmod,SRate,Flags
PIDR, 131336479, 0.01937928, -0.0003947701, 0.01977405, 0.002669497, 0, 0.0001406323, 0, 0, 1, 0.04477774, 9
FMT, 104, 52, PIDP, QffffffffffB, TimeUS,Tar,Act,Err,P,I,D,FF,DFF,Dmod,SRate,Flags
PIDP, 131336616, 0.01296643, 0.0008603265, 0.01210611, 0.001634325, 0, 1.613769E-05, 0, 0, 1, 0.03770212, 9
FMT, 105, 52, PIDY, QffffffffffB, TimeUS,Tar,Act,Err,P,I,D,FF,DFF,Dmod,SRate,Flags
PIDY, 131336696, 2.664209E-05, 0.001197033, -0.0008988217, -0.0001617879, 0, 0, 0, 0, 1, 0.00212135, 9
FMT, 106, 52, PIDA, QffffffffffB, TimeUS,Tar,Act,Err,P,I,D,FF,DFF,Dmod,SRate,Flags
PIDA, 131336772, -1.095867, -1.095867, 0, 0, -661.8701, 0, 0, 0, 1, 0, 13
FMT, 47, 44, XKF4, QBcccccfffHBIHb, TimeUS,C,SV,SP,SH,SM,SVT,errRP,OFN,OFE,FS,TS,SS,GPS,PI
XKF4, 131335032, 0, 0, 0, 0.03, 0.01, 0, 0.004480225, -0.000476926, 8.954249E-05, 0, 50, 65575, 1, 0
FMT, 44, 56, XKF1, QBccCfffffffccce, TimeUS,C,Roll,Pitch,Yaw,VN,VE,VD,dPD,PN,PE,PD,GX,GY,GZ,OH
XKF1, 131335032, 0, -0.24, -0.16, 104.65, -0.0001789787, -0.003669003, 0.02357734, -0.04388996, 0.05284827, 0.1404795, 1.037449, 0.08, 0.27, 0.06, 0
FMT, 45, 46, XKF2, QBccccchhhhhhfff, TimeUS,C,AX,AY,AZ,VWN,VWE,MN,ME,MD,MX,MY,MZ,IDX,IDY,IS
XKF2, 131335032, 0, 0, 0, -0.09, 0, 0, 423, 4, -181, 0, 0, 0, 0, 0, 0
FMT, 46, 42, XKF3, QBcccccchhhccff, TimeUS,C,IVN,IVE,IVD,IPN,IPE,IPD,IMX,IMY,IMZ,IYAW,IVT,RErr,ErSc
XKF3, 131335032, 0, 0, 0, 0, 0, 0, 0.37, 0, 0, 0, 1.08, 0, 0, 0.001367336
FMT, 48, 41, XKF5, QBBhhhcccCCfff, TimeUS,C,NI,FIX,FIY,AFI,HAGL,offset,RI,rng,Herr,eAng,eVel,ePos
XKF5, 131335032, 0, 0, 0, 16, 0, 0, 0, 0, 0, 0.5, 0.0001408939, 0.002207334, 0.007445696
FMT, 51, 20, XKFS, QBBBBBBBBB, TimeUS,C,MI,BI,GI,AI,SS,GPS_GTA,GPS_CHK_WAIT,MAG_FUSION
XKFS, 131335032, 0, 0, 0, 0, 0, 0, 0, 0, 1
FMT, 52, 28, XKQ, QBffff, TimeUS,C,Q1,Q2,Q3,Q4
XKQ, 131335032, 0, 0.6110808, -0.01072948, 0.01397897, 0.7913721
FMT, 70, 45, AHR2, QccCfLLffff, TimeUS,Roll,Pitch,Yaw,Alt,Lat,Lng,Q1,Q2,Q3,Q4
AHR2, 131337588, -0.19, -0.12, 103.43, -0.39, -7.2665211, 112.7858843, 0.6196023, -0.0002194532, -0.0020477, 0.7849132
FMT, 74, 31, POS, QLLfff, TimeUS,Lat,Lng,Alt,RelHomeAlt,RelOriginAlt
POS, 131337695, -7.2665211, 112.7858843, 25.93, -0.3560407, -1.037449
FMT, 205, 32, MOTB, QfffffB, TimeUS,LiftMax,BatVolt,ThLimit,ThrAvMx,ThrOut,FailFlags
MOTB, 131337770, 1, 1, 1, 0.06618702, 0, 2
RCIN, 131337861, 1490, 1495, 982, 1459, 1495, 2006, 982, 1495, 1495, 1495, 1495, 1495, 1495, 1495
RCI2, 131337875, 1495, 1495, 0, 1
FMT, 62, 39, RCOU, QHHHHHHHHHHHHHH, TimeUS,C1,C2,C3,C4,C5,C6,C7,C8,C9,C10,C11,C12,C13,C14
RCOU, 131337897, 1000, 1000, 1000, 1000, 0, 0, 0, 0, 0, 0, 0, 0, 0, 0
FMT, 207, 19, RCO2, QHHHH, TimeUS,C15,C16,C17,C18
RCO2, 131337962, 0, 0, 0, 0
FMT, 190, 47, PSCD, Qfffffffff, TimeUS,DPD,TPD,PD,DVD,TVD,VD,DAD,TAD,AD
PSCD, 131338031, 1.037449, 1.037449, 1.037449, 0.02357734, 0.02357734, 0.02357734, 0.01095867, 0.01095867, 0.01095867
FMT, 166, 28, VIBE, QBfffI, TimeUS,IMU,VibeX,VibeY,VibeZ,Clip
VIBE, 131338116, 0, 0.03750222, 0.05688265, 0.06184116, 0
FMT, 117, 76, UNIT, QbZ, TimeUS,Id,Label
FMT, 118, 20, MULT, Qbd, TimeUS,Id,Mult
FMT, 94, 51, GPS, QBBIHBcLLeffffB, TimeUS,I,Status,GMS,GWk,NSats,HDop,Lat,Lng,Alt,Spd,GCrs,VZ,Yaw,U
FMT, 95, 39, GPA, QBCCCCfBIHeHH, TimeUS,I,VDop,HAcc,VAcc,SAcc,YAcc,VV,SMS,Delta,AEl,RTCMFU,RTCMFD
FMT, 99, 22, UBX1, QBHBBHI, TimeUS,Instance,noisePerMS,jamInd,aPower,agcCnt,config
FMT, 100, 16, UBX2, QBbBbB, TimeUS,Instance,ofsI,magI,ofsQ,magQ
FMT, 96, 42, GRAW, QIHBBddfBbB, TimeUS,WkMS,Week,numSV,sv,cpMes,prMes,doMes,mesQI,cno,lli
FMT, 97, 24, GRXH, QdHbBB, TimeUS,rcvTime,week,leapS,numMeas,recStat
FMT, 98, 41, GRXS, QddfBBBHBBBBB, TimeUS,prMes,cpMes,doMes,gnss,sv,freq,lock,cno,prD,cpD,doD,trk
FMT, 101, 23, SBPH, QIII, TimeUS,CrcError,LastInject,IARhyp
FMT, 102, 23, SBRE, QHIiBB, TimeUS,GWk,GMS,ns_residual,level,quality
FMT, 59, 75, MSG, QZ, TimeUS,Message
FMT, 208, 39, RCO3, QHHHHHHHHHHHHHH, TimeUS,C19,C20,C21,C22,C23,C24,C25,C26,C27,C28,C29,C30,C31,C32
FMT, 63, 19, RSSI, Qff, TimeUS,RXRSSI,RXLQ
FMT, 65, 24, BARD, QBfff, TimeUS,I,DynPrX,DynPrY,DynPrZ
FMT, 66, 25, CANF, QBIBBBBBBBBB, TimeUS,Bus,Id,DLC,B0,B1,B2,B3,B4,B5,B6,B7
FMT, 67, 81, CAFD, QBIBQQQQQQQQ, TimeUS,Bus,Id,DLC,D0,D1,D2,D3,D4,D5,D6,D7
FMT, 196, 50, PL, QBBfffffffIIB, TimeUS,Heal,TAcq,pX,pY,vX,vY,mX,mY,mZ,LastMeasMS,EKFOutl,Est
FMT, 68, 24, POWR, QffHHB, TimeUS,Vcc,VServo,Flags,AccFlags,Safety
FMT, 69, 27, MCU, Qffff, TimeUS,MTemp,MVolt,MVmin,MVmax
FMT, 93, 46, CMD, QHHHffffLLfB, TimeUS,CTot,CNum,CId,Prm1,Prm2,Prm3,Prm4,Lat,Lng,Alt,Frame
FMT, 92, 46, MISE, QHHHffffLLfB, TimeUS,CTot,CNum,CId,Prm1,Prm2,Prm3,Prm4,Lat,Lng,Alt,Frame
FMT, 78, 48, MAVC, QBBBBBHffffiifBB, TimeUS,TS,TC,SS,SC,Fr,Cmd,P1,P2,P3,P4,X,Y,Z,Res,WL
FMT, 79, 20, RAD, QBBBBBHH, TimeUS,RSSI,RemRSSI,TxBuf,Noise,RemNoise,RxErrors,Fixed
FMT, 81, 46, CAM, QBHIHLLeeeccC, TimeUS,I,Img,GPSTime,GPSWeek,Lat,Lng,Alt,RelAlt,GPSAlt,R,P,Y
FMT, 82, 46, TRIG, QBHIHLLeeeccC, TimeUS,I,Img,GPSTime,GPSWeek,Lat,Lng,Alt,RelAlt,GPSAlt,R,P,Y
FMT, 83, 48, MNT, QBfffffffff, TimeUS,I,DRoll,Roll,DPitch,Pitch,DYawB,YawB,DYawE,YawE,Dist
FMT, 112, 41, ARSP, QBffcffBBffB, TimeUS,I,Airspeed,DiffPress,Temp,RawPress,Offset,U,H,Hp,TR,Pri
FMT, 88, 41, BAT, QBfffffcfBBB, TimeUS,Inst,Volt,VoltR,Curr,CurrTot,EnrgTot,Temp,Res,RemPct,H,SH
FMT, 89, 40, BCL, QBfHHHHHHHHHHHH, TimeUS,Instance,Volt,V1,V2,V3,V4,V5,V6,V7,V8,V9,V10,V11,V12
FMT, 111, 35, MAG, QBhhhhhhhhhBI, TimeUS,I,MagX,MagY,MagZ,OfsX,OfsY,OfsZ,MOX,MOY,MOZ,Health,S
FMT, 115, 36, DMS, QIIIIBBBBBBBBB, TimeUS,N,Dp,RT,RS,Fa,Fmn,Fmx,Pa,Pmn,Pmx,Sa,Smn,Smx
FMT, 174, 41, BCN, QBBfffffff, TimeUS,Health,Cnt,D0,D1,D2,D3,PosX,PosY,PosZ
FMT, 175, 57, PRX, QBBfffffffffff, TimeUS,Layer,He,D0,D45,D90,D135,D180,D225,D270,D315,DUp,CAn,CDis
FMT, 176, 44, PRXR, QBffffffff, TimeUS,Layer,D0,D45,D90,D135,D180,D225,D270,D315
FMT, 179, 61, PM, QHHHIIHHIIIIIIQ, TimeUS,LR,NLon,NL,MaxT,Mem,Load,ErrL,InE,ErC,SPIC,I2CC,I2CI,Ex,R
FMT, 178, 29, SRTL, QBHHBfff, TimeUS,Active,NumPts,MaxPts,Action,N,E,D
FMT, 170, 48, OABR, QBBHHHBfLLfLLf, TimeUS,Type,Act,DYaw,Yaw,DP,RChg,Mar,DLt,DLg,DAlt,OLt,OLg,OAlt
FMT, 171, 31, OADJ, QBBBBLLLL, TimeUS,State,Err,CurrPoint,TotPoints,DLat,DLng,OALat,OALng
FMT, 172, 37, SA, QBffffffB, TimeUS,State,DVelX,DVelY,DVelZ,MVelX,MVelY,MVelZ,Back
FMT, 173, 21, OAVG, QBBLL, TimeUS,version,point_num,Lat,Lon
FMT, 77, 45, SIM, QccCfLLffff, TimeUS,Roll,Pitch,Yaw,Alt,Lat,Lng,Q1,Q2,Q3,Q4
FMT, 84, 38, TERR, QBLLHffHHf, TimeUS,Status,Lat,Lng,Spacing,TerrH,CHeight,Pending,Loaded,ROfs
FMT, 86, 40, ESC, QBffffcfcf, TimeUS,Instance,RPM,RawRPM,Volt,Curr,Temp,CTot,MotTemp,Err
FMT, 87, 15, EDT2, QBBBB, TimeUS,Instance,Stress,MaxStress,Status
FMT, 85, 46, CSRV, QBfffBfffffB, TimeUS,Id,Pos,Force,Speed,Pow,PosCmd,V,A,MotT,PCBT,Err
FMT, 107, 52, PIDS, QffffffffffB, TimeUS,Tar,Act,Err,P,I,D,FF,DFF,Dmod,SRate,Flags
FMT, 108, 52, PIDN, QffffffffffB, TimeUS,Tar,Act,Err,P,I,D,FF,DFF,Dmod,SRate,Flags
FMT, 109, 52, PIDE, QffffffffffB, TimeUS,Tar,Act,Err,P,I,D,FF,DFF,Dmod,SRate,Flags
FMT, 110, 56, DSTL, QBfLLeccfeffff, TimeUS,Stg,THdg,Lat,Lng,Alt,XT,Travel,L1I,Loiter,Des,P,I,D
FMT, 161, 32, ACC, QBQfff, TimeUS,I,SampleUS,AccX,AccY,AccZ
FMT, 162, 32, GYR, QBQfff, TimeUS,I,SampleUS,GyrX,GyrY,GyrZ
FMT, 163, 54, IMU, QBffffffIIfBBHH, TimeUS,I,GyrX,GyrY,GyrZ,AccX,AccY,AccZ,EG,EA,T,GH,AH,GHz,AHz
FMT, 164, 31, ISBH, QHBBHHQf, TimeUS,N,type,instance,mul,smp_cnt,SampleUS,smp_rate
FMT, 165, 207, ISBD, QHHaaa, TimeUS,N,seqno,x,y,z
FMT, 129, 15, RFRH, QI, TimeUS,TF
FMT, 130, 5, RFRF, BB, FTypes,Slow
FMT, 138, 38, RFRN, IIIfIfffBBB, HLat,HLon,HAlt,E2T,AM,TX,TY,TZ,VC,EKT,Flags
FMT, 131, 4, REV2, B, Event
FMT, 132, 15, RSO2, III, Lat,Lon,Alt
FMT, 133, 11, RWA2, ff, Airspeed,uncertainty
FMT, 134, 4, REV3, B, Event
FMT, 135, 15, RSO3, III, Lat,Lon,Alt
FMT, 136, 11, RWA3, ff, Airspeed,Uncertainty
FMT, 137, 16, REY3, ffIB, yawangle,yawangleerr,timestamp_ms,type
FMT, 139, 13, RISH, HBBfBB, LR,PG,PA,LD,AC,GC
FMT, 140, 37, RISI, ffffffffBB, DVX,DVY,DVZ,DAX,DAY,DAZ,DVDT,DADT,Flags,I
FMT, 148, 5, RASH, BB, Primary,NumInst
FMT, 149, 14, RASI, fIBBB, pd,UpdateMS,H,Use,I
FMT, 141, 5, RBRH, BB, Primary,NumInst
FMT, 142, 13, RBRI, IfBB, LastUpdate,Alt,H,I
FMT, 143, 12, RRNH, ffB, GCl,MaxD,NumSensors
FMT, 144, 22, RRNI, ffffBBB, PX,PY,PZ,Dist,Orient,Status,I
FMT, 145, 5, RGPH, BB, NumInst,Primary
FMT, 146, 23, RGPI, ffffBBBB, OX,OY,OZ,Lg,Flags,Stat,NSats,I
FMT, 147, 58, RGPJ, IffffffIiiiffHB, TS,VX,VY,VZ,SA,Y,YA,YT,Lat,Lon,Alt,HA,VA,HD,I
FMT, 153, 14, RMGH, fBBBBBBB, Dec,Avail,NumInst,AutoDec,NumEna,LOE,C,FUsable
FMT, 154, 35, RMGI, IffffffBBBB, LU,OX,OY,OZ,FX,FY,FZ,UFY,H,HSF,I
FMT, 150, 33, RBCH, ffffiiiBB, PX,PY,PZ,AE,OLat,OLng,OAlt,Flags,NumInst
FMT, 151, 25, RBCI, IffffBB, LU,PX,PY,PZ,Dist,H,I
FMT, 152, 21, RVOH, fffIBB, OX,OY,OZ,Del,H,Ena
FMT, 155, 40, ROFH, ffffIffffB, FX,FY,GX,GY,Tms,PX,PY,PZ,HgtOvr,Qual
FMT, 156, 49, REPH, fffffffffIIH, PX,PY,PZ,Q1,Q2,Q3,Q4,PEr,AEr,TS,RT,D
FMT, 157, 19, RSLL, IIfI, Lat,Lng,PosAccSD,TS
FMT, 158, 25, REVH, ffffIH, VX,VY,VZ,Er,TS,D
FMT, 159, 31, RWOH, ffIffff, DA,DT,TS,PX,PY,PZ,R
FMT, 160, 53, RBOH, ffffffffIfffH, Q,DPX,DPY,DPZ,DAX,DAY,DAZ,DT,TS,OX,OY,OZ,D
FMT, 43, 37, XKF0, QBBccCCcccccccc, TimeUS,C,ID,rng,innov,SIV,TR,BPN,BPE,BPD,OFH,OFL,OFN,OFE,OFD
FMT, 49, 36, XKFD, QBffffff, TimeUS,C,IX,IY,IZ,IVX,IVY,IVZ
FMT, 50, 29, XKFM, QBBffff, TimeUS,C,OGNM,GLR,ALR,GDR,ADR
FMT, 53, 48, XKT, QBIffffffff, TimeUS,C,Cnt,IMUMin,IMUMax,EKFMin,EKFMax,AngMin,AngMax,VMin,VMax
FMT, 54, 20, XKTV, QBff, TimeUS,C,TVS,TVD
FMT, 55, 60, XKV1, QBffffffffffff, TimeUS,C,V00,V01,V02,V03,V04,V05,V06,V07,V08,V09,V10,V11
FMT, 56, 60, XKV2, QBffffffffffff, TimeUS,C,V12,V13,V14,V15,V16,V17,V18,V19,V20,V21,V22,V23
FMT, 57, 60, XKY0, QBffffffffffff, TimeUS,C,YC,YCS,Y0,Y1,Y2,Y3,Y4,W0,W1,W2,W3,W4
FMT, 58, 52, XKY1, QBffffffffff, TimeUS,C,IVN0,IVN1,IVN2,IVN3,IVN4,IVE0,IVE1,IVE2,IVE3,IVE4
FMT, 41, 60, NKY0, QBffffffffffff, TimeUS,C,YC,YCS,Y0,Y1,Y2,Y3,Y4,W0,W1,W2,W3,W4
FMT, 42, 52, NKY1, QBffffffffff, TimeUS,C,IVN0,IVN1,IVN2,IVN3,IVN4,IVE0,IVE1,IVE2,IVE3,IVE4
FMT, 71, 19, AOA, Qff, TimeUS,AOA,SSA
FMT, 73, 24, ORGN, QBLLe, TimeUS,Type,Lat,Lng,Alt
FMT, 76, 35, ATSC, Qffffff, TimeUS,AngPScX,AngPScY,AngPScZ,PDScX,PDScY,PDScZ
FMT, 204, 51, VSTB, Qffffffffff, TimeUS,GyrX,GyrY,GyrZ,AccX,AccY,AccZ,Q1,Q2,Q3,Q4
FMT, 90, 38, MON, QIbIHHHHHII, TimeUS,Dly,Tsk,IErr,IErrCnt,IErrLn,MM,MC,SmLn,SPICnt,I2CCnt
FMT, 91, 47, WDOG, QbIHHHHHHHIBIIn, TimeUS,Tsk,IE,IEC,IEL,MvMsg,MvCmd,SmLn,FL,FT,FA,FP,ICSR,LR,TN
FMT, 210, 24, UART, QBfff, TimeUS,I,Tx,Rx,RxDp
FMT, 113, 21, RPM, QBffB, TimeUS,I,RPM,Qual,H
FMT, 209, 27, FNCE, QBBBLLBf, TimeUS,Tot,Seq,Type,Lat,Lng,Count,Radius
FMT, 177, 33, DSF, QIHIIII, TimeUS,Dp,Blk,Bytes,FMn,FMx,FAv
FMT, 119, 24, RALY, QBBLLhB, TimeUS,Tot,Seq,Lat,Lng,Alt,Flags
FMT, 183, 23, MAV, QBHHHBHH, TimeUS,chan,txp,rxp,rxdp,flags,ss,tf
FMT, 167, 43, VISO, Qffffffff, TimeUS,dt,AngDX,AngDY,AngDZ,PosDX,PosDY,PosDZ,conf
FMT, 168, 58, VISP, QQIffffffffBBb, TimeUS,RTimeUS,CTimeMS,PX,PY,PZ,R,P,Y,PErr,AErr,Rst,Ign,Q
FMT, 169, 42, VISV, QQIffffBBb, TimeUS,RTimeUS,CTimeMS,VX,VY,VZ,VErr,Rst,Ign,Q
FMT, 180, 28, OF, QBffff, TimeUS,Qual,flowX,flowY,bodyX,bodyY
FMT, 182, 21, WENC, Qfbfb, TimeUS,Dist0,Qual0,Dist1,Qual1
FMT, 185, 35, ADSB, QIiiiHHhH, TimeUS,ICAO_address,Lat,Lng,Alt,Heading,Hor_vel,Ver_vel,Squark
FMT, 186, 18, ARM, QBIBB, TimeUS,ArmState,ArmChecks,Forced,Method
FMT, 184, 13, ERR, QBB, TimeUS,Subsys,ECode
FMT, 187, 35, WINC, QBBBBBfffHfb, TimeUS,Heal,ThEnd,Mov,Clut,Mode,DLen,Len,DRate,Tens,Vcc,Temp
FMT, 188, 47, PSCN, Qfffffffff, TimeUS,DPN,TPN,PN,DVN,TVN,VN,DAN,TAN,AN
FMT, 189, 47, PSCE, Qfffffffff, TimeUS,DPE,TPE,PE,DVE,TVE,VE,DAE,TAE,AE
FMT, 191, 35, PSON, Qffffff, TimeUS,TPON,PON,TVON,VON,TAON,AON
FMT, 192, 35, PSOE, Qffffff, TimeUS,TPOE,POE,TVOE,VOE,TAOE,AOE
FMT, 193, 35, PSOD, Qffffff, TimeUS,TPOD,POD,TVOD,VOD,TAOD,AOD
FMT, 194, 35, PSOT, Qffffff, TimeUS,TPOT,POT,TVOT,VOT,TAOT,AOT
FMT, 201, 33, STAK, QBBHHN, TimeUS,Id,Pri,Total,Free,Name
FMT, 202, 88, FILE, NIBZ, FileName,Offset,Length,Data
FMT, 197, 78, AISR, QBBBZ, TimeUS,num,total,ID,payload
FMT, 198, 41, AIS1, QBBIBbHbLLHHBBbI, US,typ,rep,mmsi,nav,rot,sog,pos,lon,lat,cog,hed,sec,man,raim,rad
FMT, 199, 38, AIS4, QBIHBBBBBBLLBBI, US,rep,mmsi,year,mth,day,h,m,s,fix,lon,lat,epfd,raim,rad
FMT, 200, 175, AIS5, QBIBINZBHHBBBBZB, US,rep,mmsi,ver,imo,cal,nam,typ,bow,stn,prt,str,fix,dght,dst,dte
FMT, 203, 39, SCR, QNIii, TimeUS,Name,Runtime,Total_mem,Run_mem
FMT, 206, 98, VER, QBHBBBBIZHBBII, TimeUS,BT,BST,Maj,Min,Pat,FWT,GH,FWS,APJ,BU,FV,IMI,ICI
FMT, 6, 24, PTUN, QBfff, TimeUS,Param,TunVal,TunMin,TunMax
FMT, 1, 14, D16, QBh, TimeUS,Id,Value
FMT, 2, 14, DU16, QBH, TimeUS,Id,Value
FMT, 4, 16, DU32, QBI, TimeUS,Id,Value
FMT, 5, 16, DFLT, QBf, TimeUS,Id,Value
FMT, 9, 47, SIDD, Qfffffffff, TimeUS,Time,Targ,F,Gx,Gy,Gz,Ax,Ay,Az
FMT, 10, 40, SIDS, QBfffffff, TimeUS,Ax,Mag,FSt,FSp,TFin,TC,TR,TFout
FMT, 8, 49, GUIP, QBfffbffffff, TimeUS,Type,pX,pY,pZ,Terrain,vX,vY,vZ,aX,aY,aZ
FMT, 11, 44, GUIA, QBffffffff, TimeUS,Type,Roll,Pitch,Yaw,RollRt,PitchRt,YawRt,Thrust,ClimbRt
FMT, 12, 27, RTDT, Qffff, TimeUS,dt,dtAvg,dtMax,dtMin
OF, 131356962, 136, -3.66148E-09, 0.04188245, 0.01365872, -0.04070068
IMU, 131357082, 0, 0.002460704, 0.005054694, 0.002597832, 0.327519, -0.0745854, -9.886299, 0, 0, 42.51293, 1, 1, 7999, 999
RFND, 131387061, 0, 0.083, 2, 25, -1
SURF, 131387079, 0, 3, 0.08, 0, -1.095483
SURF, 131387111, 1, 2, 0, 0, -1.015483
IMU, 131397253, 0, 0.002410478, 0.00488119, 0.001119224, 0.3268245, -0.05675807, -9.898483, 0, 0, 42.51413, 1, 1, 7999, 999
OF, 131412008, 135, 0, 0, 0.01171349, -0.04284357
GPS, 131414958, 0, 3, 551792000, 2369, 8, 1.44, -7.2665213, 112.7858857, 25.78, 0.169, 101.5889, 0.014, 0, 1
GPA, 131414958, 0, 1.62, 4.65, 4.26, 1.38, 0, 1, 131393, 200, 43.14, 0, 0
FMT, 252, 43, DCM, Qffffffff, TimeUS,Roll,Pitch,Yaw,ErrRP,ErrYaw,VWN,VWE,VWD
DCM, 131421943, -0.1981813, -0.131656, 103.4411, 0.02079665, 0.003069612, 0, 0, 0
POWR, 131435159, 4.956445, 4.970549, 0, 0, 6
MAG, 131435190, 0, -89, -417, -181, -59, -9, -67, 0, 0, 0, 1, 131435182
MAG, 131435190, 1, -118, -331, -259, -719, 54, -1137, 0, 0, 0, 1, 131435187
RFND, 131437568, 0, 0.08400001, 2, 25, -1
SURF, 131437599, 0, 3, 0.08, 0, -1.087353
SURF, 131437636, 1, 2, 0, 0, -1.007353
BARO, 131437691, 0, -1.090728, -1.090728, 101133.6, 38.09, 0.7654841, 131437, 0, 35, 1, 101133.6
CTUN, 131437737, 0, 0, 0, 0.6618701, -0.6931884, -0.6931884, -1.09, NaN, 0.08, 24.36656, -2, -2
FMT, 247, 37, NVAL, QINfBB, TimeUS,TimeBootMS,Name,Value,SSys,SCom
NVAL, 131437904, 45475, MQ2-1, 4.504652, 2, 158
ATT, 131438086, -0.0003513448, -0.2470917, 1.300139E-05, -0.1662541, 104.6692, 104.6593, 3
ANG, 131436723, -0.0003513448, -0.2469496, 1.300139E-05, -0.1662347, 104.6692, 104.6684, 0.002503
RATE, 131436750, 1.111996, -0.07647862, 0.003061885, 0.7480942, -0.007430872, 0.001959275, 0.005212458, 0.03978698, -0.0001300456, -0.1266479, -0.1266479, 0, 0
PIDR, 131438140, 0.01931386, -0.001334804, 0.02064867, 0.00278757, 0, 0.000274315, 0, 0, 1, 0.04920272, 9
PIDP, 131438156, 0.01302383, -0.0001296932, 0.01315352, 0.001775726, 0, 0.0001835495, 0, 0, 1, 0.03767335, 9
PIDY, 131438171, 7.099722E-05, 0.0006944139, -0.0007224756, -0.0001300456, 0, 0, 0, 0, 1, 0.001966686, 9
PIDA, 131438193, -0.1266479, -0.1266479, 0, 0, -661.8701, 0, 0, 0, 1, 0, 13
XKF4, 131436987, 0, 0, 0, 0.06, 0.01, 0, 0.004415262, -0.000476926, 8.954249E-05, 0, 50, 71719, 1, 0
XKF1, 131436987, 0, -0.24, -0.16, 104.65, -0.000540613, -0.002313548, 0.02511204, -2.980588, 0.05280061, 0.1408198, 0.6931884, 0.08, 0.28, 0.06, 0
XKF2, 131436987, 0, 0, 0, -0.09, 0, 0, 423, 4, -181, 0, 0, 0, 0, 0, 0
XKF3, 131436987, 0, 0, 0, 0, 0, 0, -0.62, 0, 0, 0, 1.08, 0, 0, 0.003691324
XKF5, 131436987, 0, 0, 5, 21, 0, 0.13, 0.16, 0, 0, 0.5, 0.0001062233, 0.004701902, 0.696673
XKFS, 131436987, 0, 0, 0, 0, 0, 0, 0, 0, 1
XKQ, 131436987, 0, 0.6110835, -0.01071995, 0.01396455, 0.7913705
XKV1, 131436987, 0, 0.000168774, 2.403876E-06, 2.389346E-06, 9.63492E-05, 0.0002464539, 0.0002676161, 0.01712856, 0.2673359, 0.2677456, 0.1908472, 3.472548E-11, 3.465768E-11
XKV2, 131436987, 0, 1.135585E-10, 4.482554E-06, 4.482588E-06, 5.838542E-08, 0, 0, 0, 0, 0, 0, 0, 0
AHR2, 131438442, -0.2, -0.14, 103.44, -0.35, -7.2665213, 112.7858859, 0.6195942, -7.73104E-05, -0.002184401, 0.7849193
POS, 131438462, -7.2665213, 112.7858857, 25.78, -1.090728, -0.6931884
MOTB, 131438478, 1, 1, 1, 0.06618702, 0, 2
RCIN, 131438549, 1491, 1513, 982, 1459, 1495, 2006, 982, 1495, 1495, 1495, 1495, 1495, 1495, 1495
RCI2, 131438563, 1495, 1495, 0, 1
RCOU, 131438585, 1000, 1000, 1000, 1000, 0, 0, 0, 0, 0, 0, 0, 0, 0, 0
RCO2, 131438598, 0, 0, 0, 0
PSCD, 131438615, 0.6931884, 0.6931884, 0.6931884, 0.02511204, 0.02511204, 0.02511204, 0.001266479, 0.001266479, 0.001266479
VIBE, 131438629, 0, 0.03801124, 0.05567143, 0.06619865, 0
IMU, 131438647, 0, 0.0001283841, 0.004780544, 0.001777312, 0.3210591, -0.1057074, -9.892286, 0, 0, 42.5145, 1, 1, 7999, 999
IMU, 131518368, 0, 0.001369434, 0.005464514, 0.002539763, 0.3272567, -0.07898761, -9.868718, 0, 0, 42.51457, 1, 1, 7999, 999
DCM, 131522530, -0.2079177, -0.2354943, 103.4462, 0.02079665, 0.003174967, 0, 0, 0
OF, 131523120, 129, 0, 0, 0.01265342, -0.04114167
POWR, 131536058, 4.779199, 4.960879, 0, 0, 6
MAG, 131536086, 0, -89, -418, -182, -59, -9, -67, 0, 0, 0, 1, 131536078
MAG, 131536086, 1, -121, -328, -257, -719, 54, -1137, 0, 0, 0, 1, 131536083
RFND, 131539004, 0, 0.085, 2, 25, -1
SURF, 131539022, 0, 3, 0.08, 0, -1.051175
SURF, 131539121, 1, 2, 0, 0, -0.9711754
BARO, 131539187, 0, -0.4295094, -0.4295094, 101126.2, 38.09, -0.0776236, 131539, 0, 35, 1, 101126.2
CTUN, 131539221, 0, 0, 0, 0.6618701, -0.4356344, -0.4356344, -0.42, NaN, 0.08, 24.36656, -2, -2
ATT, 131539682, -0.0001946499, -0.244729, -2.530699, -0.1647585, 104.6693, 104.6618, 3
ANG, 131537674, -0.0001946499, -0.2445881, -2.530699, -0.1647393, 104.6693, 104.6708, 0.0025
RATE, 131537691, 1.099199, 0.05245119, 0.00218929, -45.90873, 0.0138223, -0.1162241, -0.1802105, 0.009930935, -0.0005147325, -0.6735802, -0.6735802, 0, 0
PIDR, 131539733, 0.01923092, 0.000915446, 0.01831548, 0.002472589, 0, -0.0002832995, 0, 0, 1, 0.0544512, 9
PIDP, 131539749, -0.8020056, 0.0002412447, -0.8022469, -0.1083033, 0, -0.007920787, 0, 0, 1, 0.3473081, 9
PIDY, 131539765, -0.003218767, 0.0001733275, -0.002859625, -0.0005147325, 0, 0, 0, 0, 1, 0.002179214, 9
PIDA, 131539780, -0.6735802, -0.6735802, 0, 0, -661.8701, 0, 0, 0, 1, 0, 13
XKF4, 131537928, 0, 0, 0, 0.06, 0.01, 0, 0.004496821, -0.000476926, 8.954249E-05, 0, 50, 71719, 1, 0
XKF1, 131537928, 0, -0.24, -0.16, 104.66, -0.0008225677, -4.688336E-07, 0.02793906, -3.27596, 0.05272025, 0.1414521, 0.4356344, 0.08, 0.28, 0.06, 0
XKF2, 131537928, 0, 0, 0, -0.09, 0, 0, 423, 4, -181, 0, 0, 0, 0, 0, 0
XKF3, 131537928, 0, 0, 0, 0, 0, 0, -0.5, 0, 0, 0, 1.12, 0, 0, 0.004339062
XKF5, 131537928, 0, 0, 4, -1, 0, 0.13, 0.17, 0, 0, 0.5, 0.0001324482, 0.003911566, 0.4172401
XKFS, 131537928, 0, 0, 0, 0, 0, 0, 0, 0, 1
XKQ, 131537928, 0, 0.6110665, -0.01071798, 0.01398861, 0.7913831
AHR2, 131539925, -0.2, -0.25, 103.44, -1.09, -7.2665213, 112.785886, 0.6195633, 0.0006051066, -0.002789039, 0.7849416
POS, 131539945, -7.2665213, 112.7858857, 25.78, -0.4295094, -0.4356344
MOTB, 131539966, 1, 1, 1, 0.06618702, 0, 2
RCIN, 131539985, 1491, 1643, 982, 1459, 1495, 2006, 982, 1495, 1495, 1495, 1495, 1495, 1495, 1495
RCI2, 131539999, 1495, 1495, 0, 1
RCOU, 131540024, 1000, 1000, 1000, 1000, 0, 0, 0, 0, 0, 0, 0, 0, 0, 0
RCO2, 131540037, 0, 0, 0, 0
PSCD, 131540054, 0.4356344, 0.4356344, 0.4356344, 0.02793906, 0.02793906, 0.02793906, 0.006735802, 0.006735802, 0.006735802
VIBE, 131540076, 0, 0.03390435, 0.05370645, 0.06153616, 0
IMU, 131558627, 0, 0.0007159053, 0.005093212, 0.002223081, 0.3283194, -0.09144574, -9.882887, 0, 0, 42.51421, 1, 1, 7999, 999
NVAL, 131571215, 45609, MQ2-1, 4.651811, 2, 158
OF, 131583615, 136, 0, 0, 0.011229, -0.04397603
RFND, 131589336, 0, 0.086, 2, 25, -1
SURF, 131589354, 0, 3, 0.08, 0, -1.025025
SURF, 131589382, 1, 2, 0, 0, -0.9450248
IMU, 131599362, 0, 0.001564612, 0.004972784, 0.001080106, 0.3283063, -0.07711952, -9.891964, 0, 0, 42.51274, 1, 1, 7999, 999
GPS, 131618037, 0, 3, 551792200, 2369, 8, 1.44, -7.2665216, 112.7858869, 25.73, 0.094, 101.5889, -0.043, 0, 1
GPA, 131618037, 0, 1.62, 4.64, 4.26, 1.25, 0, 1, 131593, 200, 43.09, 0, 0
DCM, 131622260, -0.2148337, -0.3366256, 103.4456, 0.04119073, 0.002752363, 0, 0, 0
OF, 131635372, 129, 0, 0, 0.01256616, -0.04093059
POWR, 131638769, 4.943554, 4.750549, 0, 0, 6
MAG, 131638797, 0, -88, -417, -183, -59, -9, -67, 0, 0, 0, 1, 131638789
MAG, 131638797, 1, -123, -329, -250, -719, 54, -1137, 0, 0, 0, 1, 131638794
RFND, 131641073, 0, 0.085, 2, 25, -1
SURF, 131641091, 0, 3, 0.08, 0, -0.996142
SURF, 131641119, 1, 2, 0, 0, -0.9161419
BARO, 131641180, 0, -0.3390864, -0.3390864, 101125.2, 38.09, -0.635112, 131641, 0, 35, 1, 101125.2
CTUN, 131641214, 0, 0, 0, 0.6618701, -0.2857381, -0.2857381, -0.33, NaN, 0.08, 24.3182, -2, -2
ATT, 131641586, -9.777124E-05, -0.2449886, -4.2032, -0.1636471, 104.6693, 104.6611, 3
ANG, 131640249, -9.777124E-05, -0.2448473, -4.2032, -0.163628, 104.6693, 104.6702, 0.003214
RATE, 131640334, 1.100073, 0.05663659, 0.002282372, -6.423493, -0.001282315, 0.0008147247, 0.007197772, 0.06378507, -0.0004380565, 0.3657341, 0.3657341, 0, 0
PIDR, 131641649, 0.01924006, 0.000988495, 0.01825156, 0.002463961, 0, -0.0001815893, 0, 0, 1, 0.05880027, 9
PIDP, 131641667, -0.2347712, -2.238061E-05, -0.2347488, -0.03169109, 0, 0.03250581, 0, 0, 1, 0.8572188, 9
PIDY, 131641682, -0.0003743164, 0.001113259, -0.002433647, -0.0004380565, 0, 0, 0, 0, 1, 0.002694911, 9
PIDA, 131641698, 0.3657341, 0.3657341, 0, 0, -661.8701, 0, 0, 0, 1, 0, 13
XKF4, 131640645, 0, 0, 0, 0.03, 0.01, 0, 0.00458125, -0.000476926, 8.954249E-05, 0, 50, 71719, 1, 0
XKF1, 131640645, 0, -0.24, -0.16, 104.66, -0.0005803027, 0.001124738, 0.02891456, -2.111587, 0.05265722, 0.1421002, 0.2857381, 0.08, 0.28, 0.06, 0
XKF2, 131640645, 0, 0, 0, -0.09, 0, 0, 423, 4, -181, 0, 0, 0, 0, 0, 0
XKF3, 131640645, 0, 0, 0, 0, 0, 0, -0.5, 0, 0, 0, 1.12, 0, 0, 0.00105868
XKF5, 131640645, 0, 0, 0, -3, 0, 0.12, 0.17, 0, 0, 0.5, 5.761982E-05, 0.003675576, 0.2501298
XKFS, 131640645, 0, 0, 0, 0, 0, 0, 0, 0, 1
XKQ, 131640645, 0, 0.6110708, -0.01072696, 0.01399281, 0.7913796
AHR2, 131641858, -0.2, -0.31, 103.44, -0.42, -7.2665216, 112.7858868, 0.6195608, 0.001011007, -0.00311208, 0.7849418
POS, 131641878, -7.2665216, 112.7858869, 25.73, -0.3390864, -0.2857381
MOTB, 131641891, 1, 1, 1, 0.06618702, 0, 2
RCIN, 131641911, 1490, 1555, 982, 1459, 1495, 2006, 982, 1495, 1495, 1495, 1495, 1495, 1495, 1495
RCI2, 131641925, 1495, 1495, 0, 1
RCOU, 131641947, 1000, 1000, 1000, 1000, 0, 0, 0, 0, 0, 0, 0, 0, 0, 0
RCO2, 131641960, 0, 0, 0, 0
PSCD, 131641977, 0.2857381, 0.2857381, 0.2857381, 0.02891456, 0.02891456, 0.02891456, -0.003657341, -0.003657341, -0.003657341
VIBE, 131641991, 0, 0.03324718, 0.04956654, 0.06179047, 0
IMU, 131642012, 0, 0.00245468, 0.004896955, 0.002201081, 0.3289008, -0.08329396, -9.89751, 0, 0, 42.5131, 1, 1, 7999, 999
MAV, 131676474, 1, 6345, 390, 0, 6, 0, 331
IMU, 131681476, 0, 0.0004655876, 0.00457838, 0.00156049, 0.3266901, -0.07761921, -9.896509, 0, 0, 42.51583, 1, 1, 7999, 999
OF, 131691432, 123, -0.04103696, -3.587565E-09, 0.01242289, -0.04270981
RFND, 131691460, 0, 0.085, 2, 25, -1
SURF, 131691480, 0, 3, 0.08, 0, -0.9653593
SURF, 131691567, 1, 2, 0, 0, -0.8853592
NVAL, 131705146, 45740, MQ2-1, 4.446606, 2, 158
DCM, 131722356, -0.1763173, -0.199304, 103.4448, 0.04119073, 0.002263675, 0, 0, 0
IMU, 131723050, 0, 0.002026652, 0.005218748, 0.0008692327, 0.3334163, -0.07823183, -9.855295, 0, 0, 42.51609, 1, 1, 7999, 999
MSG, 131728108, SRC=2/158:CLEANING
POWR, 131740954, 4.95, 4.943956, 0, 0, 6
MAG, 131740982, 0, -88, -418, -182, -59, -9, -67, 0, 0, 0, 1, 131740974
MAG, 131740982, 1, -119, -332, -262, -719, 54, -1137, 0, 0, 0, 1, 131740979
OF, 131743453, 126, -3.619975E-09, 0.04140769, 0.01146279, -0.04285531
RFND, 131743494, 0, 0.085, 2, 25, -1
SURF, 131743573, 0, 3, 0.08, 0, -0.9334217
SURF, 131743603, 1, 2, 0, 0, -0.8534217
BARO, 131743655, 0, -0.05086295, -0.05086295, 101122, 38.1, 0.1592363, 131743, 0, 35, 1, 101122
CTUN, 131743689, 0, 0, 0, 0.6618701, -0.1868362, -0.1868362, -0.05, NaN, 0.08, 24.3182, -3, -3
ATT, 131743915, -5.057358E-05, -0.2436057, -2.299877, -0.1618091, 104.6693, 104.6601, 3
ANG, 131742496, -5.057358E-05, -0.2434649, -2.299877, -0.1617902, 104.6693, 104.6691, 0.002501
RATE, 131742522, 1.095155, -0.08607721, 0.003289299, 5.711103, 0.02441523, 0.01201021, 0.04564124, 0.03161564, -3.718535E-05, 0.8805275, 0.8805275, 0, 0
PIDR, 131743969, 0.01911424, -0.001502331, 0.02061657, 0.002783237, 0, 0.0005060617, 0, 0, 1, 0.06275263, 9
PIDP, 131743985, 0.1062053, 0.0004261262, 0.1057791, 0.01428018, 0, -0.002269972, 0, 0, 1, 1.322057, 9
PIDY, 131744000, 0.0009006251, 0.0005517971, -0.0002065853, -3.718535E-05, 0, 0, 0, 0, 1, 0.003372977, 9
PIDA, 131744015, 0.8805275, 0.8805275, 0, 0, -661.8701, 0, 0, 0, 1, 0, 13
XKF4, 131742805, 0, 0, 0, 0.02, 0.01, 0, 0.004665644, -0.000476926, 8.954249E-05, 0, 50, 71719, 1, 0
XKF1, 131742805, 0, -0.24, -0.16, 104.66, 0.000204336, 0.001352997, 0.03168738, -1.106702, 0.05265129, 0.1427263, 0.1868362, 0.08, 0.28, 0.06, 0
XKF2, 131742805, 0, 0, 0, -0.09, 0, 0, 423, 4, -181, 0, 0, 0, 0, 0, 0
XKF3, 131742805, 0, 0, 0, 0, 0, 0, -0.5, 0, 0, 0, 1.14, 0, 0, 0.0007603026
XKF5, 131742805, 0, 0, 7, -1, 0, 0.13, 0.18, 0, 0, 0.5, 6.939802E-05, 0.00372559, 0.135864
XKFS, 131742805, 0, 0, 0, 0, 0, 0, 0, 0, 1
XKQ, 131742805, 0, 0.6110782, -0.01073215, 0.01401226, 0.7913735
AHR2, 131744170, -0.16, -0.17, 103.44, -0.33, -7.2665216, 112.7858868, 0.6195659, 0.0002525784, -0.002085981, 0.7849419
POS, 131744190, -7.2665216, 112.7858869, 25.73, -0.05086295, -0.1868362
MOTB, 131744204, 1, 1, 1, 0.06618702, 0, 2
RCIN, 131744224, 1490, 1499, 982, 1459, 1495, 2006, 982, 1495, 1495, 1495, 1495, 1495, 1495, 1495
RCI2, 131744237, 1495, 1495, 0, 1
RCOU, 131744286, 1000, 1000, 1000, 1000, 0, 0, 0, 0, 0, 0, 0, 0, 0, 0
RCO2, 131744341, 0, 0, 0, 0
PSCD, 131744359, 0.1868362, 0.1868362, 0.1868362, 0.03168738, 0.03168738, 0.03168738, -0.008805275, -0.008805275, -0.008805275
VIBE, 131744373, 0, 0.03483952, 0.05005731, 0.066563, 0
IMU, 131764965, 0, 0.0006041785, 0.005171111, 0.002167443, 0.32984, -0.07950534, -9.880366, 0, 0, 42.51701, 1, 1, 7999, 999
MSG, 131790417, ArduCopter V4.7.0-dev (42215595)
MSG, 131790448, ChibiOS: c6d0293e
VER, 131790469, 10, 5001, 4, 7, 0, 0, 1109480853, ArduCopter V4.7.0-dev (42215595), 9, 2, 2, 537093136, 1093648945
MSG, 131790575, Pixhawk1 00360022 32305112 34393539
MSG, 131790613, Param space used: 1243/4096
MSG, 131790644, RC Protocol: SBUS
MSG, 131790712, RCOut: PWM:1-7 PWM:9 PWM:11-14
MSG, 131790741, New mission
CMD, 131792565, 4, 0, 16, 0, 0, 0, 0, 0, 0, 0, 0
CMD, 131792595, 4, 1, 22, 0, 0, 0, 0, 0, 0, 1, 3
CMD, 131792626, 4, 2, 16, 0, 0, 0, 0, -7.2665441, 112.7861565, 1, 3
CMD, 131792671, 4, 3, 16, 0, 0, 0, 0, -7.2665385, 112.7861035, 1, 3
MSG, 131792688, New rally
MSG, 131792708, New fence
MSG, 131792746, Frame: QUAD/X
MODE, 131792763, AltHold, 2, 1
MSG, 131792804, GPS 1: probing for u-blox at 230400 baud
MSG, 131792871, u-blox 1 HW: 00080000 SW: ROM CORE 3.01 (107888)
RFND, 131794698, 0, 0.08450001, 2, 25, -1
SURF, 131794716, 0, 3, 0.08, 0, -0.9008723
SURF, 131794743, 1, 2, 0, 0, -0.8208723
OF, 131799796, 123, 0, 0, 0.01438868, -0.04042157
IMU, 131804837, 0, 0.0001886488, 0.005558833, 0.001939798, 0.3167019, -0.07010753, -9.919158, 0, 0, 42.51604, 1, 1, 7999, 999
GPS, 131822889, 0, 3, 551792400, 2369, 8, 1.44, -7.2665218, 112.7858879, 25.63, 0.07, 101.5889, 0.006, 0, 1
GPA, 131822889, 0, 1.62, 4.64, 4.25, 0.82, 0, 1, 131793, 200, 42.99, 0, 0
DCM, 131824077, -0.1419729, -0.05652122, 103.4457, 0.0492794, 0.001919512, 0, 0, 0
STAK, 131833395, 15, 178, 4528, 3376, dronecan_0
NVAL, 131835074, 45872, MQ2-1, 4.275235, 2, 158
POWR, 131842116, 4.771142, 4.931868, 0, 0, 6
MAG, 131842169, 0, -88, -417, -183, -59, -9, -67, 0, 0, 0, 1, 131842147
MAG, 131842169, 1, -117, -332, -265, -719, 54, -1137, 0, 0, 0, 1, 131842152
DU32, 131842246, 7, 6349208
TERR, 131842407, 2, -7.2665218, 112.7858879, 100, 1.410469, 24.21953, 0, 224, 0
RFND, 131844672, 0, 0.085, 2, 25, -1
SURF, 131844690, 0, 3, 0.08, 0, -0.8681638
SURF, 131844723, 1, 2, 0, 0, -0.7881638
BARO, 131844785, 0, -0.06216583, -0.06216583, 101122.1, 38.1, 1.627554, 131844, 0, 35, 1, 101122.1
CTUN, 131844825, 0, 0, 0, 0.6618701, -0.1217484, -0.1217484, -0.06, NaN, 0.08, 24.21953, -3, -3
ATT, 131844999, -2.574721E-05, -0.2442247, -1.163641, -0.1607624, 104.6693, 104.6603, 3
ANG, 131843823, -2.574721E-05, -0.2440833, -1.163641, -0.1607436, 104.6693, 104.6693, 0.002498
RATE, 131843840, 1.098265, 0.04539353, 0.002342309, 3.244697, -0.05090275, 0.007212321, 0.02328124, 0.04586017, -6.63457E-05, 1.394939, 1.394939, 0, 0
PIDR, 131845049, 0.01920399, 0.0007922666, 0.01841172, 0.002485582, 0, -0.0001432732, 0, 0, 1, 0.06663506, 9
PIDP, 131845064, 0.05988289, -0.0008884207, 0.06077131, 0.008204128, 0, -0.0009918066, 0, 0, 1, 1.692519, 9
PIDY, 131845080, 0.0004431857, 0.000800411, -0.0003685872, -6.63457E-05, 0, 0, 0, 0, 1, 0.003999184, 9
PIDA, 131845097, 1.394939, 1.394939, 0, 0, -661.8701, 0, 0, 0, 1, 0, 13
XKF4, 131844069, 0, 0, 0, 0.01, 0.01, 0, 0.004749591, -0.000476926, 8.954249E-05, 0, 50, 71719, 1, 0
XKF1, 131844069, 0, -0.24, -0.16, 104.66, 1.224098E-05, 0.002105193, 0.03232464, -0.4680206, 0.05265564, 0.1432887, 0.1217484, 0.08, 0.28, 0.06, 0
XKF2, 131844069, 0, 0, 0, -0.09, 0, 0, 423, 4, -181, 0, 0, 0, 0, 0, 0
XKF3, 131844069, 0, 0, 0, 0, 0, 0, -0.25, 0, 0, 0, 1.19, 0, 0, 0.0001630791
XKF5, 131844069, 0, 0, 7, -1, 0, 0.13, 0.19, 0, 0, 0.5, 7.387344E-05, 0.003222029, 0.06017146
XKFS, 131844069, 0, 0, 0, 0, 0, 0, 0, 0, 1
XKQ, 131844069, 0, 0.6110765, -0.01074271, 0.01401354, 0.7913747
AHR2, 131845351, -0.15, -0.07, 103.44, -0.05, -7.2665218, 112.7858879, 0.6195564, -0.0003480716, -0.001435157, 0.7849507
POS, 131845370, -7.2665218, 112.7858879, 25.63, -0.06216583, -0.1217484
MOTB, 131845383, 1, 1, 1, 0.06618702, 0, 2
RCIN, 131845403, 1490, 1496, 982, 1459, 1495, 2006, 982, 1495, 1495, 1495, 1495, 1495, 1495, 1495
RCI2, 131845416, 1495, 1495, 0, 1
RCOU, 131845441, 1000, 1000, 1000, 1000, 0, 0, 0, 0, 0, 0, 0, 0, 0, 0
RCO2, 131845453, 0, 0, 0, 0
PSCD, 131845470, 0.1217484, 0.1217484, 0.1217484, 0.03232464, 0.03232464, 0.03232464, -0.01394939, -0.01394939, -0.01394939
VIBE, 131845484, 0, 0.03790957, 0.05860826, 0.06977826, 0
IMU, 131845504, 0, 0.002260325, 0.004037508, 0.001892848, 0.3327212, -0.1006523, -9.907801, 0, 0, 42.51599, 1, 1, 7999, 999
UART, 131845597, 1, 2085, 50, 0
UART, 131845613, 3, 0, 744, 0
UART, 131845626, 4, 5737, 278, 0
UART, 131845639, 6, 8194, 5005, 0
RAD, 131847951, 204, 202, 85, 61, 51, 0, 0
OF, 131854779, 125, -3.628271E-09, 0.04150259, 0.01134626, -0.04298389
FILE, @SYS/uarts.txt, 0, 64, UARTV1
SERIAL0 OTG1  TX =       0 RX =       0 TXBD=     0 RXBD=
FILE, @SYS/uarts.txt, 64, 64,      0 RXDRP=       0 FE=0 OE=0 NE=0 FlowCtrl=0
SERIAL1 UART2 TX
IMU, 131885034, 0, 0.002365808, 0.005094029, 0.001430235, 0.3234794, -0.07674571, -9.866539, 0, 0, 42.51633, 1, 1, 7999, 999
FILE, @SYS/uarts.txt, 128, 64,  =  225916 RX*=    9990 TXBD= 17165 RXBD=   759 RXDRP=       0 F
RFND, 131894641, 0, 0.08400001, 2, 25, -1
SURF, 131894674, 0, 3, 0.08, 0, -0.8356226
SURF, 131894712, 1, 2, 0, 0, -0.7556226
FILE, @SYS/uarts.txt, 192, 64, E=0 OE=0 NE=0 FlowCtrl=0
SERIAL2 UART3 TX =       0 RX =       0
OF, 131909972, 133, 0, 0, 0.01194279, -0.04155852
FILE, @SYS/uarts.txt, 256, 64,  TXBD=     0 RXBD=     0 RXDRP=       0 FE=0 OE=0 NE=0 FlowCtrl=
DCM, 131924047, -0.2062265, -0.1213523, 103.446, 0.0492794, 0.001684389, 0, 0, 0
IMU, 131924819, 0, 0.0005638314, 0.005010759, 0.001472003, 0.3234006, -0.09192613, -9.923086, 0, 0, 42.51862, 1, 1, 7999, 999
FILE, @SYS/uarts.txt, 320, 64, 2
SERIAL3 UART4 TX*=    3116 RX*=   87584 TXBD=   236 RXBD=  665
STAK, 131932491, 16, 59, 2016, 720, log_io
POWR, 131942224, 4.81626, 4.929451, 0, 0, 6
MAG, 131942251, 0, -88, -418, -183, -59, -9, -67, 0, 0, 0, 1, 131942244
MAG, 131942251, 1, -119, -332, -261, -719, 54, -1137, 0, 0, 0, 1, 131942248
FILE, @SYS/uarts.txt, 384, 64, 4 RXDRP=   10948 FE=5641 OE=0 NE=185 FlowCtrl=0
SERIAL4 UART8 TX
RFND, 131944741, 0, 0.085, 2, 25, -1
SURF, 131944759, 0, 3, 0.08, 0, -0.8035431
SURF, 131944789, 1, 2, 0, 0, -0.723543
BARO, 131944857, 0, -0.4521151, -0.4521151, 101126.4, 38.11, 1.814044, 131944, 0, 35, 1, 101126.4
CTUN, 131944902, 0, 0, 0, 0.6618701, -0.08006784, -0.08006784, -0.45, NaN, 0.08, 24.21953, -3, -3
ATT, 131945020, -1.309416E-05, -0.2426842, -0.5940902, -0.1601389, 104.6693, 104.6583, 3
ANG, 131943822, -1.309416E-05, -0.2425437, -0.5940902, -0.1601204, 104.6693, 104.6673, 0.002495
RATE, 131943854, 1.091783, 0.1132298, 0.00198119, 2.007028, -0.004578388, 0.004383848, 0.02174731, 0.04089077, -5.721426E-05, -0.3541946, -0.3541946, 0, 0
PIDR, 131945088, 0.01903467, 0.001976232, 0.01705844, 0.002302889, 0, -0.0003216994, 0, 0, 1, 0.07040946, 9
PIDP, 131945103, 0.03670429, -7.990794E-05, 0.0367842, 0.004965867, 0, -0.0005820192, 0, 0, 1, 1.959723, 9
PIDY, 131945118, 0.0003396444, 0.0007136787, -0.000317857, -5.721426E-05, 0, 0, 0, 0, 1, 0.004454229, 9
PIDA, 131945133, -0.3541946, -0.3541946, 0, 0, -661.8701, 0, 0, 0, 1, 0, 13
XKF4, 131944100, 0, 0, 0, 0.01, 0.01, 0, 0.004834797, -0.000476926, 8.954249E-05, 0, 50, 71719, 1, 0
XKF1, 131944100, 0, -0.24, -0.16, 104.65, 0.0001463713, 0.002669556, 0.03409951, -0.1727121, 0.05265477, 0.1438064, 0.08006784, 0.08, 0.28, 0.06, 0
XKF2, 131944100, 0, 0, 0, -0.09, 0, 0, 423, 4, -181, 0, 0, 0, 0, 0, 0
XKF3, 131944100, 0, 0, 0, 0, 0, 0, -0.26, 0, 0, 0, 1.22, 0, 0, 0.0001686397
XKF5, 131944100, 0, 0, -3, -1, 0, 0.13, 0.2, 0, 0, 0.5, 7.38513E-05, 0.002975755, 0.008730075
XKFS, 131944100, 0, 0, 0, 0, 0, 0, 0, 0, 1
XKQ, 131944100, 0, 0.6110902, -0.01073856, 0.01402769, 0.7913638
XKV1, 131944100, 0, 0.0001685831, 2.888792E-06, 2.874247E-06, 9.621964E-05, 0.0001927874, 0.0002161243, 0.0189026, 0.2673453, 0.2677992, 0.2262306, 3.564123E-11, 3.557425E-11
XKV2, 131944100, 0, 1.133496E-10, 6.546427E-07, 6.547226E-07, 5.807541E-08, 0, 0, 0, 0, 0, 0, 0, 0
AHR2, 131945388, -0.21, -0.13, 103.44, -0.06, -7.2665217, 112.7858879, 0.6195602, -0.0002601012, -0.002225781, 0.784946
POS, 131945407, -7.2665218, 112.7858879, 25.63, -0.4521151, -0.08006784
MOTB, 131945423, 1, 1, 1, 0.06618702, 0, 2
RCIN, 131945443, 1491, 1495, 982, 1459, 1495, 2006, 982, 1495, 1495, 1495, 1495, 1495, 1495, 1495
RCI2, 131945456, 1495, 1495, 0, 1
RCOU, 131945478, 1000, 1000, 1000, 1000, 0, 0, 0, 0, 0, 0, 0, 0, 0, 0
RCO2, 131945490, 0, 0, 0, 0
PSCD, 131945558, 0.08006784, 0.08006784, 0.08006784, 0.03409951, 0.03409951, 0.03409951, 0.003541946, 0.003541946, 0.003541946
VIBE, 131945572, 0, 0.03620523, 0.05744555, 0.0745018, 0
FILE, @SYS/uarts.txt, 448, 64,  =  263825 RX =   12346 TXBD= 20045 RXBD=   938 RXDRP=      14 F
OF, 131964759, 119, 0, 0, 0.01422812, -0.03997641
NVAL, 131964926, 46002, MQ2-1, 4.622145, 2, 158
IMU, 131965076, 0, 0.001615466, 0.005205041, 0.002425759, 0.3323248, -0.07957567, -9.861863, 0, 0, 42.52124, 1, 1, 7999, 999
FMT, 254, 35, IOMC, QHHIIIII, TimeUS,RSErr,Mem,TS,NPkt,Nerr,Nerr2,NDel
IOMC, 131969768, 0, 608, 137783, 57857, 0, 0, 0
FILE, @SYS/uarts.txt, 512, 64, E=2 OE=0 NE=0 FlowCtrl=0
SERIAL5 UART7 TX =       0 RX =       0
FILE, @SYS/uarts.txt, 576, 64,  TXBD=     0 RXBD=     0 RXDRP=       0 FE=0 OE=0 NE=0 FlowCtrl=
RFND, 131994638, 0, 0.08400001, 2, 25, -1
SURF, 131994655, 0, 3, 0.08, 0, -0.7721223
SURF, 131994690, 1, 2, 0, 0, -0.6921223
FILE, @SYS/uarts.txt, 640, 64, 0
IOMCU   UART6 TX*=  978510 RX*=  628956 TXBD=  9081 RXBD= 1515
IMU, 132004845, 0, 0.003496523, 0.005990931, 0.001932925, 0.3231691, -0.08351557, -9.901137, 0, 0, 42.5226, 1, 1, 7999, 999
FILE, @SYS/uarts.txt, 704, 43, 5 RXDRP=       0 FE=0 OE=0 NE=0 FlowCtrl=0

OF, 132019770, 118, 3.620032E-09, -0.04140833, 0.01006007, -0.04469668
GPS, 132023580, 0, 3, 551792600, 2369, 8, 1.44, -7.2665219, 112.785889, 25.5, 0.122, 101.5889, -0.046, 0, 1
GPA, 132023580, 0, 1.62, 4.62, 4.24, 1.25, 0, 1, 131993, 200, 42.86, 0, 0
DCM, 132024070, -0.2700696, -0.1837824, 103.4455, 0.05377467, 0.001402936, 0, 0, 0
STAK, 132032490, 17, 176, 1456, 984, I2C0
POWR, 132042134, 4.91294, 4.810989, 0, 0, 6
MAG, 132042161, 0, -88, -419, -184, -59, -9, -67, 0, 0, 0, 1, 132042154
MAG, 132042161, 1, -123, -324, -253, -719, 54, -1137, 0, 0, 0, 1, 132042158
RFND, 132044677, 0, 0.083, 2, 25, -1
SURF, 132044697, 0, 3, 0.08, 0, -0.7415769
SURF, 132044744, 1, 2, 0, 0, -0.6615769
BARO, 132044796, 0, -0.3560407, -0.3560407, 101125.4, 38.1, 0.6253276, 132044, 0, 35, 1, 101125.4
CTUN, 132044830, 0, 0, 0, 0.6618701, -0.05602661, -0.05602661, -0.35, NaN, 0.08, 24.09086, -3, -3
ATT, 132044954, -6.745276E-06, -0.2419151, -0.3033073, -0.1561639, 104.6693, 104.6576, 3
ANG, 132043822, -6.745276E-06, -0.2417744, -0.3033073, -0.1561452, 104.6693, 104.6665, 0.002494
RATE, 132043845, 1.088711, -0.09806596, 0.003445031, 1.359345, 0.04146549, 0.002908045, 0.01953179, 0.03615522, -3.253633E-05, -0.5160332, -0.5160332, 0, 0
PIDR, 132045004, 0.01893631, -0.001711574, 0.02064788, 0.002787464, 0, 0.0006575665, 0, 0, 1, 0.07469981, 9
PIDP, 132045019, 0.02465823, 0.0007237094, 0.02393452, 0.00323116, 0, -0.0003231149, 0, 0, 1, 2.141026, 9
PIDY, 132045035, 0.0004009078, 0.0006310277, -0.0001807574, -3.253633E-05, 0, 0, 0, 0, 1, 0.004762426, 9
PIDA, 132045055, -0.5160332, -0.5160332, 0, 0, -661.8701, 0, 0, 0, 1, 0, 13
XKF4, 132044065, 0, 0, 0, 0.03, 0.01, 0, 0.004919185, -0.000476926, 8.954249E-05, 0, 50, 71719, 1, 0
XKF1, 132044065, 0, -0.24, -0.15, 104.65, -0.000412776, 0.003130508, 0.03586331, -0.02669393, 0.05262046, 0.1443542, 0.05602661, 0.08, 0.28, 0.06, 0
XKF2, 132044065, 0, 0, 0, -0.09, 0, 0, 423, 4, -181, 0, 0, 0, 0, 0, 0
XKF3, 132044065, 0, 0, 0, 0, 0, 0, -0.5, 0, 0, 0, 1.24, 0, 0, 0.001023112
XKF5, 132044065, 0, 0, 5, 0, 0, 0.13, 0.21, 0, 0, 0.5, 7.546623E-05, 0.003295934, 0.02813617
XKFS, 132044065, 0, 0, 0, 0, 0, 0, 0, 0, 1
XKQ, 132044065, 0, 0.611095, -0.01076183, 0.01405426, 0.7913594
AHR2, 132045206, -0.26, -0.16, 103.44, -0.45, -7.2665219, 112.7858889, 0.6195585, -0.0003174964, -0.002740416, 0.7849457
POS, 132045230, -7.2665219, 112.785889, 25.5, -0.3560407, -0.05602661
MOTB, 132045244, 1, 1, 1, 0.06618702, 0, 2
RCIN, 132045329, 1491, 1495, 982, 1459, 1495, 2006, 982, 1495, 1495, 1495, 1495, 1495, 1495, 1495
RCI2, 132045342, 1495, 1495, 0, 1
RCOU, 132045364, 1000, 1000, 1000, 1000, 0, 0, 0, 0, 0, 0, 0, 0, 0, 0
RCO2, 132045376, 0, 0, 0, 0
PSCD, 132045396, 0.05602661, 0.05602661, 0.05602661, 0.03586331, 0.03586331, 0.03586331, 0.005160332, 0.005160332, 0.005160332
VIBE, 132045413, 0, 0.03488484, 0.058234, 0.07218465, 0
IMU, 132045430, 0, -0.0002476168, 0.005635975, 0.001723775, 0.3326352, -0.07074872, -9.888878, 0, 0, 42.52446, 1, 1, 7999, 999
FILE, @SYS/memory.txt, 0, 64, MemInfoV1
START=0x20000000 LEN=192k FREE=    24 LRG=    24 TYPE=
RAD, 132062254, 203, 202, 94, 59, 51, 0, 0
FILE, @SYS/memory.txt, 64, 58, 1
START=0x10000000 LEN= 64k FREE=  5776 LRG=  5776 TYPE=2

OF, 132074740, 127, 0, 0, 0.01261637, -0.04065803
IMU, 132085593, 0, 0.0010614, 0.005048395, 0.002424584, 0.3369977, -0.0810625, -9.90004, 0, 0, 42.52739, 1, 1, 7999, 999
RFND, 132094665, 0, 0.08400001, 2, 25, -1
SURF, 132094689, 0, 3, 0.08, 0, -0.7120078
SURF, 132094716, 1, 2, 0, 0, -0.6320077
MAV, 132094833, 2, 9088, 440, 0, 6, 0, 9886
NVAL, 132097455, 46133, MQ2-1, 4.331897, 2, 158
FILE, @SYS/threads.txt, 0, 64, ThreadsV2
ISR           PRI=255 sp=0x20000000 STACK=1216/1536
Ar
DSF, 132099896, 6, 1824, 79118, 26, 16294, 7156
FILE, @SYS/threads.txt, 64, 64, duCopter    PRI=182 sp=0x20000600 STACK=5296/7168
idle          
DCM, 132124070, -0.2595228, -0.0996648, 103.4462, 0.05377467, 0.001406392, 0, 0, 0
IMU, 132124873, 0, 0.002636889, 0.004997391, 0.001769365, 0.3263557, -0.08654507, -9.877385, 0, 0, 42.52928, 1, 1, 7999, 999
FILE, @SYS/threads.txt, 128, 64, PRI=  1 sp=0x2001A280 STACK=288/496
UART_RX       PRI= 60 sp=0x2
OF, 132129759, 124, 0, 0, 0.01249852, -0.04273266
STAK, 132133668, 18, 181, 1456, 824, SPI1
FILE, @SYS/threads.txt, 192, 64, 002BB18 STACK=856/1200
OTG1          PRI= 60 sp=0x2002B1D0 STACK
POWR, 132142112, 4.948389, 4.786813, 0, 0, 6
MAG, 132142139, 0, -88, -419, -185, -59, -9, -67, 0, 0, 0, 1, 132142132
MAG, 132142139, 1, -120, -331, -261, -719, 54, -1137, 0, 0, 0, 1, 132142136
RFND, 132144687, 0, 0.085, 2, 25, -1
SURF, 132144740, 0, 3, 0.08, 0, -0.6835523
SURF, 132144766, 1, 2, 0, 0, -0.6035525
BARO, 132144826, 0, -0.01695432, -0.01695432, 101121.6, 38.11, -0.5170145, 132144, 0, 35, 1, 101121.6
CTUN, 132144862, 0, 0, 0, 0.6618701, -0.0443304, -0.0443304, -0.01, NaN, 0.08, 24.09086, -3, -3
ATT, 132145248, -3.470062E-06, -0.2417255, -0.1548497, -0.1556743, 104.6693, 104.657, 3
ANG, 132143823, -3.470062E-06, -0.2415847, -0.1548497, -0.1556558, 104.6693, 104.6659, 0.002497
RATE, 132143840, 1.086592, -0.01174566, 0.002533346, 1.035948, 0.01772802, 0.002232544, 0.01952075, 0.05902286, -7.325024E-05, -0.641346, -0.641346, 0, 0
PIDR, 132145386, 0.01897936, -0.0002050004, 0.01918436, 0.002589888, 0, -5.654242E-05, 0, 0, 1, 0.07825602, 9
PIDP, 132145401, 0.01850518, 0.0003094124, 0.01819576, 0.002456428, 0, -0.0002238844, 0, 0, 1, 2.238819, 9
PIDY, 132145416, 0.0003703666, 0.001030143, -0.0004069458, -7.325024E-05, 0, 0, 0, 0, 1, 0.004916568, 9
PIDA, 132145431, -0.641346, -0.641346, 0, 0, -661.8701, 0, 0, 0, 1, 0, 13
XKF4, 132144072, 0, 0, 0, 0.02, 0.01, 0, 0.005003229, -0.000476926, 8.954249E-05, 0, 50, 71719, 1, 0
XKF1, 132144072, 0, -0.24, -0.15, 104.65, 3.147822E-05, 0.003383243, 0.03758302, 0.05125135, 0.0525747, 0.1448871, 0.0443304, 0.08, 0.28, 0.06, 0
XKF2, 132144072, 0, 0, 0, -0.09, 0, 0, 423, 4, -181, 0, 0, 0, 0, 0, 0
XKF3, 132144072, 0, 0, 0, 0, 0, 0, -0.5, 0, 0, 0, 1.29, 0, 0, 0.0007113567
XKF5, 132144072, 0, 0, 4, 0, 0, 0.13, 0.22, 0, 0, 0.5, 7.840186E-05, 0.003540258, 0.05249212
XKFS, 132144072, 0, 0, 0, 0, 0, 0, 0, 0, 1
XKQ, 132144072, 0, 0.6110992, -0.01076412, 0.01405824, 0.7913561
AHR2, 132145645, -0.25, -0.08, 103.44, -0.35, -7.2665218, 112.7858888, 0.6195596, -0.0008285124, -0.00222349, 0.7849461
POS, 132145665, -7.2665219, 112.785889, 25.5, -0.01695432, -0.0443304
MOTB, 132145678, 1, 1, 1, 0.06618702, 0, 2
RCIN, 132145698, 1491, 1495, 982, 1459, 1495, 2006, 982, 1495, 1495, 1495, 1495, 1495, 1495, 1495
RCI2, 132145714, 1495, 1495, 0, 1
RCOU, 132145735, 1000, 1000, 1000, 1000, 0, 0, 0, 0, 0, 0, 0, 0, 0, 0
RCO2, 132145748, 0, 0, 0, 0
PSCD, 132145765, 0.0443304, 0.0443304, 0.0443304, 0.03758302, 0.03758302, 0.03758302, 0.00641346, 0.00641346, 0.00641346
VIBE, 132145779, 0, 0.0373193, 0.05684087, 0.06485785, 0
FILE, @SYS/threads.txt, 256, 64, =488/752
monitor       PRI=183 sp=0x20016D48 STACK=1096/1456
tim
IMU, 132164857, 0, 0.0007169673, 0.005140256, 0.001635994, 0.3278817, -0.07451075, -9.879351, 0, 0, 42.53092, 1, 1, 7999, 999
FILE, @SYS/threads.txt, 320, 64, er         PRI=181 sp=0x20018308 STACK=1424/1968
rcout         P
OF, 132184969, 132, -0.0414077, -3.619977E-09, 0.01055898, -0.04298304
FILE, @SYS/threads.txt, 384, 64, RI=181 sp=0x20017928 STACK=664/944
rcin          PRI=177 sp=0x20
RFND, 132194655, 0, 0.086, 2, 25, -1
SURF, 132194675, 0, 3, 0.08, 0, -0.6562456
SURF, 132194706, 1, 2, 0, 0, -0.5762456
FILE, @SYS/threads.txt, 448, 64, 017338 STACK=976/1456
io            PRI= 58 sp=0x20016358 STACK=
IMU, 132204778, 0, 0.001168643, 0.004901505, 0.002602399, 0.3132744, -0.08389701, -9.881763, 0, 0, 42.53361, 1, 1, 7999, 999
FILE, @SYS/threads.txt, 512, 64, 1576/2480
storage       PRI= 59 sp=0x20017D18 STACK=952/1456
UAR
GPS, 132222909, 0, 3, 551792800, 2369, 8, 1.44, -7.2665222, 112.7858901, 25.39, 0.096, 101.5889, -0.117, 0, 1
GPA, 132222909, 0, 1.62, 4.61, 4.23, 1.13, 0, 1, 132193, 200, 42.75, 0, 0
FILE, @SYS/threads.txt, 576, 64, T2         PRI= 60 sp=0x20029858 STACK=280/752
UART4         PRI
DCM, 132224073, -0.2503931, -0.01513803, 103.4458, 0.05134775, 0.001147976, 0, 0, 0
NVAL, 132224838, 46261, MQ2-1, 4.446606, 2, 158
STAK, 132235871, 19, 176, 1456, 984, I2C1
FILE, @SYS/threads.txt, 640, 64, = 60 sp=0x20028D38 STACK=360/752
UART8         PRI= 60 sp=0x2002
OF, 132239753, 119, 0.04112946, 3.595652E-09, 0.01379141, -0.04102231
POWR, 132242123, 4.958056, 4.762637, 0, 0, 6
MAG, 132242151, 0, -88, -419, -185, -59, -9, -67, 0, 0, 0, 1, 132242143
MAG, 132242151, 1, -117, -334, -264, -719, 54, -1137, 0, 0, 0, 1, 132242148
RFND, 132244677, 0, 0.085, 2, 25, -1
SURF, 132244695, 0, 3, 0.08, 0, -0.6301321
SURF, 132244726, 1, 2, 0, 0, -0.5501322
BARO, 132244777, 0, -0.3447378, -0.3447378, 101125.2, 38.11, -0.4186566, 132244, 0, 35, 1, 101125.2
CTUN, 132244811, 0, 0, 0, 0.6618701, -0.03979896, -0.03979896, -0.34, NaN, 0.08, 23.98242, -4, -4
ATT, 132244970, -1.779827E-06, -0.2395783, -0.07905767, -0.151868, 104.6693, 104.6553, 3
ANG, 132243822, -1.779827E-06, -0.2394383, -0.07905767, -0.1518497, 104.6693, 104.6641, 0.0025
RATE, 132243840, 1.077311, 0.0775997, 0.001966349, 0.8545668, 0.04383791, 0.001764991, 0.02630533, 0.05226615, -6.910697E-05, -1.922512, -1.922512, 0, 0
PIDR, 132245032, 0.01892955, 0.00135437, 0.01757518, 0.002372649, 0, -0.0004062997, 0, 0, 1, 0.08111215, 9
PIDP, 132245047, 0.01521482, 0.000765116, 0.01444971, 0.001950711, 0, -0.0001857192, 0, 0, 1, 2.272467, 9
PIDY, 132245069, 0.0004368566, 0.0009122164, -0.0003839276, -6.910697E-05, 0, 0, 0, 0, 1, 0.004840497, 9
PIDA, 132245084, -1.922512, -1.922512, 0, 0, -661.8701, 0, 0, 0, 1, 0, 13
XKF4, 132244072, 0, 0, 0, 0, 0.01, 0, 0.005085632, -0.000476926, 8.954249E-05, 0, 50, 71719, 1, 0
XKF1, 132244072, 0, -0.23, -0.15, 104.65, 7.684602E-05, 0.002776585, 0.04045404, 0.0829906, 0.0525758, 0.1452938, 0.03979896, 0.08, 0.28, 0.06, 0
XKF2, 132244072, 0, 0, 0, -0.09, 0, 0, 423, 4, -181, 0, 0, 0, 0, 0, 0
XKF3, 132244072, 0, 0, 0, 0, 0, 0, -0.18, 0, 0, 0, 1.23, 0, 0, 8.607414E-05
XKF5, 132244072, 0, 0, 0, -5, 0, 0.13, 0.23, 0, 0, 0.5, 7.484129E-05, 0.003103683, 0.06484717
XKFS, 132244072, 0, 0, 0, 0, 0, 0, 0, 0, 1
XKQ, 132244072, 0, 0.611111, -0.01077875, 0.01409352, 0.7913461
AHR2, 132245261, -0.23, -0.01, 103.44, -0.01, -7.2665222, 112.78589, 0.6195634, -0.001177865, -0.001734089, 0.7849438
POS, 132245347, -7.2665222, 112.7858901, 25.39, -0.3447378, -0.03979896
MOTB, 132245361, 1, 1, 1, 0.06618702, 0, 2
RCIN, 132245381, 1491, 1495, 982, 1459, 1495, 2006, 982, 1495, 1495, 1495, 1495, 1495, 1495, 1495
RCI2, 132245394, 1495, 1495, 0, 1
RCOU, 132245415, 1000, 1000, 1000, 1000, 0, 0, 0, 0, 0, 0, 0, 0, 0, 0
RCO2, 132245428, 0, 0, 0, 0
PSCD, 132245445, 0.03979896, 0.03979896, 0.03979896, 0.04045404, 0.04045404, 0.04045404, 0.01922512, 0.01922512, 0.01922512
VIBE, 132245459, 0, 0.03671972, 0.05859719, 0.05927904, 0
IMU, 132245477, 0, 0.002815391, 0.005667435, 0.002006198, 0.335624, -0.07040179, -9.874712, 0, 0, 42.53672, 1, 1, 7999, 999
IMU, 132285385, 0, 0.0007753612, 0.005351577, 0.001409212, 0.3131078, -0.06567974, -9.877094, 0, 0, 42.53871, 1, 1, 7999, 999
OF, 132294665, 122, 0.04140854, -0.04140853, 0.0125546, -0.0421901
RFND, 132294692, 0, 0.086, 2, 25, -1
SURF, 132294713, 0, 3, 0.08, 0, -0.6052125
SURF, 132294743, 1, 2, 0, 0, -0.5252125
FILE, @SYS/threads.txt, 704, 64, 85F0 STACK=352/752
UART6         PRI=181 sp=0x20026438 STACK=336
DCM, 132324042, -0.2044725, -0.02857648, 103.4461, 0.05134775, 0.001241161, 0, 0, 0
IMU, 132324841, 0, 0.0007097609, 0.005487906, 0.001102888, 0.3374014, -0.08593474, -9.886233, 0, 0, 42.5407, 1, 1, 7999, 999
FILE, @SYS/threads.txt, 768, 64, /752
IOMCU         PRI=183 sp=0x2001C008 STACK=648/1456
dronecan
STAK, 132335220, 20, 58, 2992, 1352, FTP
POWR, 132342217, 4.940332, 4.946373, 0, 0, 6
MAG, 132342244, 0, -88, -419, -185, -59, -9, -67, 0, 0, 0, 1, 132342237
MAG, 132342244, 1, -118, -332, -267, -719, 54, -1137, 0, 0, 0, 1, 132342241
RFND, 132344721, 0, 0.085, 2, 25, -1
SURF, 132344753, 0, 3, 0.08, 0, -0.5815474
SURF, 132344779, 1, 2, 0, 0, -0.5015475
BARO, 132344838, 0, -0.3786464, -0.3786464, 101125.6, 38.11, 0.224462, 132344, 0, 35, 1, 101125.6
CTUN, 132344874, 0, 0, 0, 0.6618701, -0.0419479, -0.0419479, -0.37, NaN, 0.08, 23.98242, -4, -4
ATT, 132344995, -9.073767E-07, -0.2404425, -0.04036135, -0.1502394, 104.6693, 104.6546, 3
ANG, 132343825, -9.073767E-07, -0.2403017, -0.04036135, -0.1502206, 104.6693, 104.6635, 0.002503
RATE, 132343843, 1.080136, -0.01478981, 0.00286798, 0.7628869, 0.009754203, 0.001845098, 0.02856044, 0.02533668, -3.340159E-05, -2.310562, -2.310562, 0, 0
PIDR, 132345049, 0.01882237, -0.000258131, 0.0190805, 0.002575868, 0, 0.0002921127, 0, 0, 1, 0.08310368, 9
PIDP, 132345064, 0.01339915, 0.000170243, 0.01322891, 0.001785903, 0, 5.919533E-05, 0, 0, 1, 2.091214, 9
PIDY, 132345079, 0.000533106, 0.0004422085, -0.0001855643, -3.340159E-05, 0, 0, 0, 0, 1, 0.004379303, 9
PIDA, 132345094, -2.310562, -2.310562, 0, 0, -661.8701, 0, 0, 0, 1, 0, 13
XKF4, 132344083, 0, 0, 0, 0.02, 0.01, 0, 0.005167158, -0.000476926, 8.954249E-05, 0, 50, 71719, 1, 0
XKF1, 132344083, 0, -0.24, -0.15, 104.65, 0.0005181152, 0.002062636, 0.04271833, 0.1083618, 0.05260932, 0.1456288, 0.0419479, 0.08, 0.28, 0.06, 0
XKF2, 132344083, 0, 0, 0, -0.09, 0, 0, 423, 4, -181, 0, 0, 0, 0, 0, 0
XKF3, 132344083, 0, 0, 0, 0, 0, 0, -0.5, 0, 0, 0, 1.18, 0, 0, 0.0006347662
XKF5, 132344083, 0, 0, 3, 7, 0, 0.13, 0.24, 0, 0, 0.5, 6.93843E-05, 0.003168343, 0.07563804
XKFS, 132344083, 0, 0, 0, 0, 0, 0, 0, 0, 1
XKQ, 132344083, 0, 0.6111156, -0.01079452, 0.0140963, 0.7913422
AHR2, 132345256, -0.19, -0.03, 103.44, -0.34, -7.2665222, 112.7858899, 0.6195567, -0.000835676, -0.00151192, 0.78495
POS, 132345343, -7.2665222, 112.7858901, 25.39, -0.3786464, -0.0419479
MOTB, 132345357, 1, 1, 1, 0.06618702, 0, 2
RCIN, 132345376, 1491, 1495, 982, 1459, 1495, 2006, 982, 1495, 1495, 1495, 1495, 1495, 1495, 1495
RCI2, 132345393, 1495, 1495, 0, 1
RCOU, 132345414, 1000, 1000, 1000, 1000, 0, 0, 0, 0, 0, 0, 0, 0, 0, 0
RCO2, 132345427, 0, 0, 0, 0
PSCD, 132345444, 0.0419479, 0.0419479, 0.0419479, 0.04271833, 0.04271833, 0.04271833, 0.02310562, 0.02310562, 0.02310562
VIBE, 132345457, 0, 0.03758433, 0.06003542, 0.07379469, 0
OF, 132349850, 126, 0, 0, 0.0102302, -0.04438419
FILE, @SYS/threads.txt, 832, 64, _0    PRI=178 sp=0x20021218 STACK=3376/4528
log_io        PRI= 5
NVAL, 132354851, 46392, MQ2-1, 4.446606, 2, 158
IMU, 132364814, 0, 0.002626449, 0.005590546, 0.002281115, 0.3216825, -0.07826918, -9.899401, 0, 0, 42.54224, 1, 1, 7999, 999
FILE, @SYS/threads.txt, 896, 64, 9 sp=0x20022630 STACK=720/2016
I2C0          PRI=176 sp=0x20022F
FILE, @SYS/threads.txt, 960, 64, 28 STACK=984/1456
SPI1          PRI=181 sp=0x20023730 STACK=824/
FILE, @SYS/threads.txt, 1024, 64, 1456
I2C1          PRI=176 sp=0x2001B6F8 STACK=984/1456
FTP     
RFND, 132394832, 0, 0.086, 2, 25, -1
SURF, 132394849, 0, 3, 0.08, 0, -0.5591052
SURF, 132394879, 1, 2, 0, 0, -0.4791053
OF, 132404701, 122, 0, 0, 0.01470641, -0.03928554
IMU, 132404821, 0, 0.00145848, 0.005393688, 0.001999605, 0.3184106, -0.06703784, -9.891143, 0, 0, 42.5442, 1, 1, 7999, 999
FILE, @SYS/threads.txt, 1088, 44,       PRI= 58 sp=0x1000CF50 STACK=1352/2992

GPS, 132422862, 0, 3, 551793000, 2369, 8, 1.44, -7.2665225, 112.7858916, 25.27, 0.123, 101.5889, 0.059, 0, 1
GPA, 132422862, 0, 1.62, 4.61, 4.22, 0.94, 0, 1, 132398, 205, 42.63, 0, 0
DCM, 132424088, -0.1537169, -0.0423313, 103.448, 0.06490511, 0.001176719, 0, 0, 0
STAK, 132437693, 255, 255, 1536, 1216, ISR
FILE, @SYS/timers.txt, 0, 64, TIMERV1
TIM4  CLK=  84Mhz MODE=  PWM FREQ=       8 TGT=       8

POWR, 132442177, 4.771142, 4.900439, 0, 0, 6
MAG, 132442208, 0, -88, -419, -184, -59, -9, -67, 0, 0, 0, 1, 132442196
MAG, 132442208, 1, -120, -331, -259, -719, 54, -1137, 0, 0, 0, 1, 132442201
RFND, 132444648, 0, 0.082, 2, 25, -1
SURF, 132444672, 0, 3, 0.08, 0, -0.5379231
SURF, 132444707, 1, 2, 0, 0, -0.4579231
BARO, 132444773, 0, -0.5425382, -0.5425382, 101127.5, 38.12, -0.04061975, 132444, 0, 35, 1, 101127.5
CTUN, 132444827, 0, 0, 0, 0.6618701, -0.04883959, -0.04883959, -0.54, NaN, 0.08, 23.86445, -4, -4
ATT, 132444981, -4.628529E-07, -0.2374567, -0.0206064, -0.1467451, 104.6693, 104.6548, 3
ANG, 132443823, -4.628529E-07, -0.2373173, -0.0206064, -0.1467271, 104.6693, 104.6636, 0.002498
RATE, 132443840, 1.069191, -0.07232191, 0.002927843, 0.7055933, 0.039119, 0.0014262, 0.0277563, 0.04173214, -8.255885E-05, 0.6501198, 0.6501198, 0, 0
PIDR, 132445032, 0.01863551, -0.001262255, 0.01989777, 0.002686199, 0, 0.0002416438, 0, 0, 1, 0.08407325, 9
PIDP, 132445047, 0.01239103, 0.0006827554, 0.01170827, 0.001580616, 0, -0.0001544161, 0, 0, 1, 1.891976, 9
PIDY, 132445062, 0.0004472109, 0.0007283633, -0.0004586603, -8.255885E-05, 0, 0, 0, 0, 1, 0.00396207, 9
PIDA, 132445077, 0.6501198, 0.6501198, 0, 0, -661.8701, 0, 0, 0, 1, 0, 13
XKF4, 132444059, 0, 0, 0, 0.02, 0.01, 0, 0.005247435, -0.000476926, 8.954249E-05, 0, 50, 71719, 1, 0
XKF1, 132444059, 0, -0.23, -0.14, 104.65, 0.0005608546, 0.001792838, 0.04433164, 0.1304316, 0.05263835, 0.1459661, 0.0488396, 0.08, 0.28, 0.06, 0
XKF2, 132444059, 0, 0, 0, -0.09, 0, 0, 423, 4, -181, 0, 0, 0, 0, 0, 0
XKF3, 132444059, 0, 0, 0, 0, 0, 0, -0.5, 0, 0, 0, 1.21, 0, 0, 0.0006900528
XKF5, 132444059, 0, 0, -11, 9, 0, 0.13, 0.25, 0, 0, 0.5, 7.156815E-05, 0.003204949, 0.08196396
XKFS, 132444059, 0, 0, 0, 0, 0, 0, 0, 0, 1
XKQ, 132444059, 0, 0.6111143, -0.01080276, 0.01413553, 0.7913424
XKV1, 132444059, 0, 0.0001683182, 3.408624E-06, 3.393917E-06, 9.605428E-05, 0.0001934661, 0.0002191188, 0.0205132, 0.2673551, 0.2678563, 0.2641049, 3.659952E-11, 3.653328E-11
XKV2, 132444059, 0, 1.131813E-10, 4.0861E-07, 4.087052E-07, 5.754916E-08, 0, 0, 0, 0, 0, 0, 0, 0
AHR2, 132445335, -0.17, -0.06, 103.44, -0.37, -7.2665224, 112.7858917, 0.6195474, -0.0005190508, -0.001529862, 0.7849576
POS, 132445354, -7.2665225, 112.7858916, 25.27, -0.5425382, -0.0488396
MOTB, 132445368, 1, 1, 1, 0.06618702, 0, 2
RCIN, 132445400, 1491, 1495, 982, 1459, 1495, 2006, 982, 1495, 1495, 1495, 1495, 1495, 1495, 1495
RCI2, 132445413, 1495, 1495, 0, 1
RCOU, 132445434, 1000, 1000, 1000, 1000, 0, 0, 0, 0, 0, 0, 0, 0, 0, 0
RCO2, 132445447, 0, 0, 0, 0
PSCD, 132445464, 0.04883959, 0.04883959, 0.04883959, 0.04433164, 0.04433164, 0.04433164, -0.006501198, -0.006501198, -0.006501198
VIBE, 132445481, 0, 0.03806977, 0.05255273, 0.05731049, 0
IMU, 132445498, 0, 0.0001964438, 0.005578571, 0.001823952, 0.3180243, -0.08322948, -9.901054, 0, 0, 42.54539, 1, 1, 7999, 999
FILE, @SYS/timers.txt, 64, 56, TIM1  CLK= 168Mhz MODE=  PWM FREQ=       7 TGT=       8

OF, 132460031, 132, 0, 0, 0.01173755, -0.04244076
NVAL, 132485020, 46520, MQ2-1, 4.446606, 2, 158
IMU, 132485144, 0, 0.00189642, 0.005618618, 0.001233024, 0.3356478, -0.07140788, -9.864252, 0, 0, 42.5479, 1, 1, 7999, 999
RFND, 132494723, 0, 0.08400001, 2, 25, -1
SURF, 132494786, 0, 3, 0.08, 0, -0.5179475
SURF, 132494813, 1, 2, 0, 0, -0.4379476
FILE, @ROMFS/hwdef.dat, 0, 64, MCU STM32F4xx STM32F427xx
define CONFIG_HAL_BOARD_SUBTYPE HAL_BO
OF, 132514691, 124, 3.595652E-09, -0.04112946, 0.01124427, -0.04180034
FILE, @ROMFS/hwdef.dat, 64, 64, ARD_SUBTYPE_CHIBIOS_FMUV3
APJ_BOARD_ID TARGET_HW_CUBE_F4
OSCILLA
DCM, 132524046, -0.2466472, -0.1402297, 103.4482, 0.06490511, 0.001175025, 0, 0, 0
IMU, 132524822, 0, 0.002103762, 0.005037823, 0.00181576, 0.3367715, -0.1038902, -9.876698, 0, 0, 42.551, 1, 1, 7999, 999
STAK, 132537402, 0, 182, 7168, 5296, ArduCopter
FILE, @ROMFS/hwdef.dat, 128, 64, TOR_HZ 24000000
STM32_ST_USE_TIMER 5
FLASH_SIZE_KB 2048
USB_STRI
POWR, 132542125, 4.891992, 4.767472, 0, 0, 6
MAG, 132542172, 0, -88, -419, -184, -59, -9, -67, 0, 0, 0, 1, 132542164
MAG, 132542172, 1, -123, -328, -253, -719, 54, -1137, 0, 0, 0, 1, 132542169
RFND, 132544699, 0, 0.085, 2, 25, -1
SURF, 132544720, 0, 3, 0.08, 0, -0.499202
SURF, 132544747, 1, 2, 0, 0, -0.419202
BARO, 132544810, 0, -0.4521151, -0.4521151, 101126.5, 38.12, -0.7982658, 132544, 0, 35, 1, 101126.5
CTUN, 132544843, 0, 0, 0, 0.6618701, -0.05918065, -0.05918065, -0.45, NaN, 0.08, 23.86445, -4, -4
ATT, 132545017, -2.357787E-07, -0.2345808, -0.01052048, -0.1441776, 104.6693, 104.6543, 3
ANG, 132543822, -2.357787E-07, -0.2344426, -0.01052048, -0.1441602, 104.6693, 104.663, 0.002499
RATE, 132543840, 1.054744, 0.02958792, 0.002280909, 0.6713783, 0.009157362, 0.00158788, 0.03000817, 0.0465272, -4.195537E-05, 0.1971245, 0.1971245, 0, 0
PIDR, 132545067, 0.01851183, 0.0005164066, 0.01799542, 0.002429382, 0, -0.0001484731, 0, 0, 1, 0.08668226, 9
PIDP, 132545083, 0.01175863, 0.0001598261, 0.0115988, 0.001565838, 0, 2.204185E-05, 0, 0, 1, 1.711718, 9
PIDY, 132545101, 0.0005530521, 0.0008120529, -0.0002330854, -4.195537E-05, 0, 0, 0, 0, 1, 0.003584585, 9
PIDA, 132545126, 0.1971245, 0.1971245, 0, 0, -661.8701, 0, 0, 0, 1, 0, 13
XKF4, 132544075, 0, 0, 0, 0.03, 0.01, 0, 0.005326207, -0.000476926, 8.954249E-05, 0, 50, 71719, 1, 0
XKF1, 132544075, 0, -0.23, -0.14, 104.65, 0.0005795447, 0.00193163, 0.04775956, 0.1486692, 0.05263308, 0.1463214, 0.05918065, 0.08, 0.28, 0.06, 0
XKF2, 132544075, 0, -0.01, 0, -0.09, 0, 0, 423, 4, -181, 0, 0, 0, 0, 0, 0
XKF3, 132544075, 0, 0, 0, 0, 0, 0, -0.5, 0, 0, 0, 1.18, 0, 0, 0.001140026
XKF5, 132544075, 0, 0, 2, 9, 0, 0.13, 0.27, 0, 0, 0.5, 7.025847E-05, 0.003147112, 0.08522106
XKFS, 132544075, 0, 0, 0, 0, 0, 0, 0, 0, 1
XKQ, 132544075, 0, 0.6111177, -0.01080509, 0.01416913, 0.7913393
AHR2, 132545368, -0.26, -0.15, 103.44, -0.54, -7.2665224, 112.7858917, 0.6195403, -0.0003257698, -0.002663317, 0.7849603
POS, 132545387, -7.2665225, 112.7858916, 25.27, -0.4521151, -0.05918065
MOTB, 132545401, 1, 1, 1, 0.06618702, 0, 2
RCIN, 132545420, 1491, 1495, 982, 1459, 1495, 2006, 982, 1495, 1495, 1495, 1495, 1495, 1495, 1495
RCI2, 132545434, 1495, 1495, 0, 1
RCOU, 132545458, 1000, 1000, 1000, 1000, 0, 0, 0, 0, 0, 0, 0, 0, 0, 0
RCO2, 132545473, 0, 0, 0, 0
PSCD, 132545490, 0.05918065, 0.05918065, 0.05918065, 0.04775956, 0.04775956, 0.04775956, -0.001971245, -0.001971245, -0.001971245
VIBE, 132545504, 0, 0.03534691, 0.0523821, 0.05983885, 0
FILE, @ROMFS/hwdef.dat, 192, 64, NG_MANUFACTURER "ArduPilot"
I2C_ORDER I2C2 I2C1
SERIAL_ORDER OTG
